NMEA 0183 Scenario Generation - Human Readable Output\n================================================================================\nGenerated: 2025-07-09 08:09:20\nScenario duration: 5 minutes\nVessels: 3\n================================================================================\n\n[08:09:20] AIS Type 1 - Vessel 367000001 (CONTAINER_SHIP_01)\n  Position Report Class A\n  Position: 37.789020, -122.390059\n  Speed: 9.3 knots, Course: 158.0°\n  Heading: 158°\n  Sentence: !AIVDM,1,1,,A,15Mwqh@P1MG?gRHEWp16;4t`0000,0*16\n  Input Data: {
    "message_type": 1,
    "mmsi": 367000001,
    "nav_status": 0,
    "rot": 128,
    "sog": 9.308632728260422,
    "position_accuracy": 0,
    "longitude": -122.39005928572796,
    "latitude": 37.789019740258986,
    "cog": 158,
    "heading": 158,
    "timestamp": 20,
    "raim": 0,
    "radio_status": 0
}\n\n[08:09:20] AIS Type 2 - Vessel 367000001 (CONTAINER_SHIP_01)\n  Position Report Class A\n  Position: 37.789020, -122.390059\n  Speed: 9.3 knots, Course: 158.0°\n  Heading: 158°\n  Sentence: !AIVDM,1,1,,A,25Mwqh@P1MG?gRHEWp16;4t`0000,0*15\n  Input Data: {
    "message_type": 2,
    "mmsi": 367000001,
    "nav_status": 0,
    "rot": 128,
    "sog": 9.308632728260422,
    "position_accuracy": 0,
    "longitude": -122.39005928572796,
    "latitude": 37.789019740258986,
    "cog": 158,
    "heading": 158,
    "timestamp": 20,
    "raim": 0,
    "radio_status": 0
}\n\n[08:09:20] AIS Type 3 - Vessel 367000001 (CONTAINER_SHIP_01)\n  Position Report Class A\n  Position: 37.789020, -122.390059\n  Speed: 9.3 knots, Course: 158.0°\n  Heading: 158°\n  Sentence: !AIVDM,1,1,,A,35Mwqh@P1MG?gRHEWp16;4t`0000,0*14\n  Input Data: {
    "message_type": 3,
    "mmsi": 367000001,
    "nav_status": 0,
    "rot": 128,
    "sog": 9.308632728260422,
    "position_accuracy": 0,
    "longitude": -122.39005928572796,
    "latitude": 37.789019740258986,
    "cog": 158,
    "heading": 158,
    "timestamp": 20,
    "raim": 0,
    "radio_status": 0
}\n\n[08:09:20] AIS Type 5 - Vessel 367000001 (CONTAINER_SHIP_01)\n  Static and Voyage Data\n  Call Sign: TEST001\n  Destination: PORT_1\n  Draught: 12.7m\n  Sentence: !AIVDM,2,1,1,A,55Mwqh@00003BG?A116>vsB6VrG;w>RW3u1400168@V6540HtOt;te?l,0*41\n  Input Data: {
    "message_type": 5,
    "mmsi": 367000001,
    "imo_number": 0,
    "callsign": "TEST001",
    "vessel_name": "CONTAINER_SHIP_01",
    "ship_type": 70,
    "dimensions": [
        66,
        38,
        6,
        5
    ],
    "epfd_type": 1,
    "eta": [
        0,
        0,
        24,
        60
    ],
    "draught": 12.712407783411383,
    "destination": "PORT_1",
    "dte": 1
}\n\n[08:09:20] AIS Type 5 - Vessel 367000001 (CONTAINER_SHIP_01)\n  Static and Voyage Data\n  Call Sign: TEST001\n  Destination: PORT_1\n  Draught: 12.7m\n  Sentence: !AIVDM,2,2,1,A,@00000000000008,2*5D\n  Input Data: {
    "message_type": 5,
    "mmsi": 367000001,
    "imo_number": 0,
    "callsign": "TEST001",
    "vessel_name": "CONTAINER_SHIP_01",
    "ship_type": 70,
    "dimensions": [
        66,
        38,
        6,
        5
    ],
    "epfd_type": 1,
    "eta": [
        0,
        0,
        24,
        60
    ],
    "draught": 12.712407783411383,
    "destination": "PORT_1",
    "dte": 1
}\n\n[08:09:20] AIS Type 18 - Vessel 367000001 (CONTAINER_SHIP_01)\n  Position Report Class B\n  Position: 37.789020, -122.390059\n  Speed: 9.3 knots\n  Sentence: !AIVDM,1,1,,A,B5Mwqh@0GEkspV5Iv0ARi?:40000,0*4F\n  Input Data: {
    "message_type": 18,
    "mmsi": 367000001,
    "sog": 9.308632728260422,
    "position_accuracy": 0,
    "longitude": -122.39005928572796,
    "latitude": 37.789019740258986,
    "cog": 158,
    "heading": 158,
    "timestamp": 20,
    "raim": 0,
    "radio_status": 0
}\n\n[08:09:20] AIS Type 19 - Vessel 367000001 (CONTAINER_SHIP_01)\n  Sentence: !AIVDM,1,1,,A,C5Mwqh@0GEkspV5Iv0ARi?:17OMa3CM;UwWACQvPR000S48C32RP,0*64\n  Input Data: {
    "message_type": 19,
    "mmsi": 367000001,
    "sog": 9.308632728260422,
    "position_accuracy": 0,
    "longitude": -122.39005928572796,
    "latitude": 37.789019740258986,
    "cog": 158,
    "heading": 158,
    "timestamp": 20,
    "vessel_name": "CONTAINER_SHIP_01",
    "ship_type": 70,
    "dimensions": [
        66,
        38,
        6,
        5
    ],
    "epfd_type": 1,
    "raim": 0
}\n\n[08:09:20] AIS Type 24 - Vessel 367000001 (CONTAINER_SHIP_01)\n  Static Data Report Class B\n  Sentence: !AIVDM,1,1,,A,H5MwqhB>vsB6VrG;w>RW3u140000,0*22\n  Input Data: {
    "part_a": {
        "message_type": 24,
        "part_number": 0,
        "mmsi": 367000001,
        "vessel_name": "CONTAINER_SHIP_01"
    },
    "part_b": {
        "message_type": 24,
        "part_number": 1,
        "mmsi": 367000001,
        "ship_type": 70,
        "callsign": "TEST001",
        "dimensions": [
            66,
            38,
            6,
            5
        ]
    }
}\n\n[08:09:20] AIS Type 24 - Vessel 367000001 (CONTAINER_SHIP_01)\n  Static Data Report Class B\n  Sentence: !AIVDM,1,1,,A,H5MwqhE60000000=9Lu444B49QQ@0,2*0F\n  Input Data: {
    "part_a": {
        "message_type": 24,
        "part_number": 0,
        "mmsi": 367000001,
        "vessel_name": "CONTAINER_SHIP_01"
    },
    "part_b": {
        "message_type": 24,
        "part_number": 1,
        "mmsi": 367000001,
        "ship_type": 70,
        "callsign": "TEST001",
        "dimensions": [
            66,
            38,
            6,
            5
        ]
    }
}\n\n[08:09:20] AIS Type 1 - Vessel 367000002 (TANKER_02)\n  Position Report Class A\n  Position: 37.830074, -122.472037\n  Speed: 5.0 knots, Course: 65.0°\n  Heading: 65°\n  Sentence: !AIVDM,1,1,,A,15MwqhPP0jG?GQDEaH?BRR2`0000,0*32\n  Input Data: {
    "message_type": 1,
    "mmsi": 367000002,
    "nav_status": 0,
    "rot": 128,
    "sog": 5.015302701887202,
    "position_accuracy": 0,
    "longitude": -122.47203743842857,
    "latitude": 37.83007430584398,
    "cog": 65,
    "heading": 65,
    "timestamp": 20,
    "raim": 0,
    "radio_status": 0
}\n\n[08:09:20] AIS Type 2 - Vessel 367000002 (TANKER_02)\n  Position Report Class A\n  Position: 37.830074, -122.472037\n  Speed: 5.0 knots, Course: 65.0°\n  Heading: 65°\n  Sentence: !AIVDM,1,1,,A,25MwqhPP0jG?GQDEaH?BRR2`0000,0*31\n  Input Data: {
    "message_type": 2,
    "mmsi": 367000002,
    "nav_status": 0,
    "rot": 128,
    "sog": 5.015302701887202,
    "position_accuracy": 0,
    "longitude": -122.47203743842857,
    "latitude": 37.83007430584398,
    "cog": 65,
    "heading": 65,
    "timestamp": 20,
    "raim": 0,
    "radio_status": 0
}\n\n[08:09:20] AIS Type 3 - Vessel 367000002 (TANKER_02)\n  Position Report Class A\n  Position: 37.830074, -122.472037\n  Speed: 5.0 knots, Course: 65.0°\n  Heading: 65°\n  Sentence: !AIVDM,1,1,,A,35MwqhPP0jG?GQDEaH?BRR2`0000,0*30\n  Input Data: {
    "message_type": 3,
    "mmsi": 367000002,
    "nav_status": 0,
    "rot": 128,
    "sog": 5.015302701887202,
    "position_accuracy": 0,
    "longitude": -122.47203743842857,
    "latitude": 37.83007430584398,
    "cog": 65,
    "heading": 65,
    "timestamp": 20,
    "raim": 0,
    "radio_status": 0
}\n\n[08:09:20] AIS Type 5 - Vessel 367000002 (TANKER_02)\n  Static and Voyage Data\n  Call Sign: TEST002\n  Destination: PORT_4\n  Draught: 14.3m\n  Sentence: !AIVDM,2,1,2,A,55MwqhP00003BG?A11;B6rfG;u1800000000001@DHM:940HtSt;te?m,0*23\n  Input Data: {
    "message_type": 5,
    "mmsi": 367000002,
    "imo_number": 0,
    "callsign": "TEST002",
    "vessel_name": "TANKER_02",
    "ship_type": 80,
    "dimensions": [
        163,
        29,
        10,
        9
    ],
    "epfd_type": 1,
    "eta": [
        0,
        0,
        24,
        60
    ],
    "draught": 14.296073298379019,
    "destination": "PORT_4",
    "dte": 1
}\n\n[08:09:20] AIS Type 5 - Vessel 367000002 (TANKER_02)\n  Static and Voyage Data\n  Call Sign: TEST002\n  Destination: PORT_4\n  Draught: 14.3m\n  Sentence: !AIVDM,2,2,2,A,000000000000008,2*2E\n  Input Data: {
    "message_type": 5,
    "mmsi": 367000002,
    "imo_number": 0,
    "callsign": "TEST002",
    "vessel_name": "TANKER_02",
    "ship_type": 80,
    "dimensions": [
        163,
        29,
        10,
        9
    ],
    "epfd_type": 1,
    "eta": [
        0,
        0,
        24,
        60
    ],
    "draught": 14.296073298379019,
    "destination": "PORT_4",
    "dte": 1
}\n\n[08:09:20] AIS Type 18 - Vessel 367000002 (TANKER_02)\n  Position Report Class B\n  Position: 37.830074, -122.472037\n  Speed: 5.0 knots\n  Sentence: !AIVDM,1,1,,A,B5MwqhP0<UkmpE5JF3l``Pb40000,0*28\n  Input Data: {
    "message_type": 18,
    "mmsi": 367000002,
    "sog": 5.015302701887202,
    "position_accuracy": 0,
    "longitude": -122.47203743842857,
    "latitude": 37.83007430584398,
    "cog": 65,
    "heading": 65,
    "timestamp": 20,
    "raim": 0,
    "radio_status": 0
}\n\n[08:09:20] AIS Type 19 - Vessel 367000002 (TANKER_02)\n  Sentence: !AIVDM,1,1,,A,C5MwqhP0<UkmpE5JF3l``Pb1a3MG;UvPT00000000000`:<>U4RP,0*63\n  Input Data: {
    "message_type": 19,
    "mmsi": 367000002,
    "sog": 5.015302701887202,
    "position_accuracy": 0,
    "longitude": -122.47203743842857,
    "latitude": 37.83007430584398,
    "cog": 65,
    "heading": 65,
    "timestamp": 20,
    "vessel_name": "TANKER_02",
    "ship_type": 80,
    "dimensions": [
        163,
        29,
        10,
        9
    ],
    "epfd_type": 1,
    "raim": 0
}\n\n[08:09:20] AIS Type 24 - Vessel 367000002 (TANKER_02)\n  Static Data Report Class B\n  Sentence: !AIVDM,1,1,,A,H5MwqhSB6rfG;u18000000000000,0*4B\n  Input Data: {
    "part_a": {
        "message_type": 24,
        "part_number": 0,
        "mmsi": 367000002,
        "vessel_name": "TANKER_02"
    },
    "part_b": {
        "message_type": 24,
        "part_number": 1,
        "mmsi": 367000002,
        "ship_type": 80,
        "callsign": "TEST002",
        "dimensions": [
            163,
            29,
            10,
            9
        ]
    }
}\n\n[08:09:20] AIS Type 24 - Vessel 367000002 (TANKER_02)\n  Static Data Report Class B\n  Sentence: !AIVDM,1,1,,A,H5MwqhU@0000000=9Lu444U67BR@0,2*62\n  Input Data: {
    "part_a": {
        "message_type": 24,
        "part_number": 0,
        "mmsi": 367000002,
        "vessel_name": "TANKER_02"
    },
    "part_b": {
        "message_type": 24,
        "part_number": 1,
        "mmsi": 367000002,
        "ship_type": 80,
        "callsign": "TEST002",
        "dimensions": [
            163,
            29,
            10,
            9
        ]
    }
}\n\n[08:09:20] AIS Type 1 - Vessel 367000003 (FISHING_VESSEL_03)\n  Position Report Class A\n  Position: 37.794232, -122.374771\n  Speed: 10.0 knots, Course: 6.0°\n  Heading: 6°\n  Sentence: !AIVDM,1,1,,A,15MwqhhP1TG?l12E`4>h?0<`0000,0*5F\n  Input Data: {
    "message_type": 1,
    "mmsi": 367000003,
    "nav_status": 0,
    "rot": 128,
    "sog": 10.011900021416642,
    "position_accuracy": 0,
    "longitude": -122.3747713403446,
    "latitude": 37.794231623279316,
    "cog": 6,
    "heading": 6,
    "timestamp": 20,
    "raim": 0,
    "radio_status": 0
}\n\n[08:09:20] AIS Type 2 - Vessel 367000003 (FISHING_VESSEL_03)\n  Position Report Class A\n  Position: 37.794232, -122.374771\n  Speed: 10.0 knots, Course: 6.0°\n  Heading: 6°\n  Sentence: !AIVDM,1,1,,A,25MwqhhP1TG?l12E`4>h?0<`0000,0*5C\n  Input Data: {
    "message_type": 2,
    "mmsi": 367000003,
    "nav_status": 0,
    "rot": 128,
    "sog": 10.011900021416642,
    "position_accuracy": 0,
    "longitude": -122.3747713403446,
    "latitude": 37.794231623279316,
    "cog": 6,
    "heading": 6,
    "timestamp": 20,
    "raim": 0,
    "radio_status": 0
}\n\n[08:09:20] AIS Type 3 - Vessel 367000003 (FISHING_VESSEL_03)\n  Position Report Class A\n  Position: 37.794232, -122.374771\n  Speed: 10.0 knots, Course: 6.0°\n  Heading: 6°\n  Sentence: !AIVDM,1,1,,A,35MwqhhP1TG?l12E`4>h?0<`0000,0*5D\n  Input Data: {
    "message_type": 3,
    "mmsi": 367000003,
    "nav_status": 0,
    "rot": 128,
    "sog": 10.011900021416642,
    "position_accuracy": 0,
    "longitude": -122.3747713403446,
    "latitude": 37.794231623279316,
    "cog": 6,
    "heading": 6,
    "timestamp": 20,
    "raim": 0,
    "radio_status": 0
}\n\n[08:09:20] AIS Type 5 - Vessel 367000003 (FISHING_VESSEL_03)\n  Static and Voyage Data\n  Call Sign: TEST003\n  Destination: PORT_5\n  Draught: 6.3m\n  Sentence: !AIVDM,2,1,3,A,55Mwqhh00003BG?A11>JW>RVrOwJG?>Fku1<000ND0=D640Ht?t;te?m,0*51\n  Input Data: {
    "message_type": 5,
    "mmsi": 367000003,
    "imo_number": 0,
    "callsign": "TEST003",
    "vessel_name": "FISHING_VESSEL_03",
    "ship_type": 30,
    "dimensions": [
        160,
        13,
        20,
        6
    ],
    "epfd_type": 1,
    "eta": [
        0,
        0,
        24,
        60
    ],
    "draught": 6.348434667348312,
    "destination": "PORT_5",
    "dte": 1
}\n\n[08:09:20] AIS Type 5 - Vessel 367000003 (FISHING_VESSEL_03)\n  Static and Voyage Data\n  Call Sign: TEST003\n  Destination: PORT_5\n  Draught: 6.3m\n  Sentence: !AIVDM,2,2,3,A,@00000000000008,2*5F\n  Input Data: {
    "message_type": 5,
    "mmsi": 367000003,
    "imo_number": 0,
    "callsign": "TEST003",
    "vessel_name": "FISHING_VESSEL_03",
    "ship_type": 30,
    "dimensions": [
        160,
        13,
        20,
        6
    ],
    "epfd_type": 1,
    "eta": [
        0,
        0,
        24,
        60
    ],
    "draught": 6.348434667348312,
    "destination": "PORT_5",
    "dte": 1
}\n\n[08:09:20] AIS Type 18 - Vessel 367000003 (FISHING_VESSEL_03)\n  Position Report Class B\n  Position: 37.794232, -122.374771\n  Speed: 10.0 knots\n  Sentence: !AIVDM,1,1,,A,B5Mwqhh0I5ku0@UJ13d3h3:40000,0*27\n  Input Data: {
    "message_type": 18,
    "mmsi": 367000003,
    "sog": 10.011900021416642,
    "position_accuracy": 0,
    "longitude": -122.3747713403446,
    "latitude": 37.794231623279316,
    "cog": 6,
    "heading": 6,
    "timestamp": 20,
    "raim": 0,
    "radio_status": 0
}\n\n[08:09:20] AIS Type 19 - Vessel 367000003 (FISHING_VESSEL_03)\n  Sentence: !AIVDM,1,1,,A,C5Mwqhh0I5ku0@UJ13d3h3:1=CWACM?we;WW;IvPV000?:06b32P,0*51\n  Input Data: {
    "message_type": 19,
    "mmsi": 367000003,
    "sog": 10.011900021416642,
    "position_accuracy": 0,
    "longitude": -122.3747713403446,
    "latitude": 37.794231623279316,
    "cog": 6,
    "heading": 6,
    "timestamp": 20,
    "vessel_name": "FISHING_VESSEL_03",
    "ship_type": 30,
    "dimensions": [
        160,
        13,
        20,
        6
    ],
    "epfd_type": 1,
    "raim": 0
}\n\n[08:09:20] AIS Type 24 - Vessel 367000003 (FISHING_VESSEL_03)\n  Static Data Report Class B\n  Sentence: !AIVDM,1,1,,A,H5MwqhjJW>RVrOwJG?>Fku1<0000,0*26\n  Input Data: {
    "part_a": {
        "message_type": 24,
        "part_number": 0,
        "mmsi": 367000003,
        "vessel_name": "FISHING_VESSEL_03"
    },
    "part_b": {
        "message_type": 24,
        "part_number": 1,
        "mmsi": 367000003,
        "ship_type": 30,
        "callsign": "TEST003",
        "dimensions": [
            160,
            13,
            20,
            6
        ]
    }
}\n\n[08:09:20] AIS Type 24 - Vessel 367000003 (FISHING_VESSEL_03)\n  Static Data Report Class B\n  Sentence: !AIVDM,1,1,,A,H5MwqhlN0000000=9Lu444m03E1P0,2*1B\n  Input Data: {
    "part_a": {
        "message_type": 24,
        "part_number": 0,
        "mmsi": 367000003,
        "vessel_name": "FISHING_VESSEL_03"
    },
    "part_b": {
        "message_type": 24,
        "part_number": 1,
        "mmsi": 367000003,
        "ship_type": 30,
        "callsign": "TEST003",
        "dimensions": [
            160,
            13,
            20,
            6
        ]
    }
}\n\n[08:09:21] GPS Fix Data - Vessel 367000001 (CONTAINER_SHIP_01)\n  Position: 37.788978, -122.390053\n  Sentence: $GPGGA,080921.663,3747.3387,N,12223.4032,W,1,8,1.2,0.0,M,19.6,M,,*77
\n\n[08:09:21] GPS Recommended Minimum - Vessel 367000001\n  Speed: 9.5 knots, Course: 158.0°\n  Sentence: $GPRMC,080921.663,A,3747.3387,N,12223.4032,W,9.5,158.0,090725,0.0,E,N*1D
\n\n[08:09:21] GPS Fix Data - Vessel 367000002 (TANKER_02)\n  Position: 37.830083, -122.472025\n  Sentence: $GPGGA,080921.663,3749.8050,N,12228.3215,W,1,8,1.2,0.0,M,19.6,M,,*70
\n\n[08:09:21] GPS Recommended Minimum - Vessel 367000002\n  Speed: 5.2 knots, Course: 65.0°\n  Sentence: $GPRMC,080921.663,A,3749.8050,N,12228.3215,W,5.2,65.0,090725,0.0,E,N*2E
\n\n[08:09:21] GPS Fix Data - Vessel 367000003 (FISHING_VESSEL_03)\n  Position: 37.794277, -122.374780\n  Sentence: $GPGGA,080921.663,3747.6566,N,12222.4868,W,1,8,1.2,0.0,M,19.6,M,,*7D
\n\n[08:09:21] GPS Recommended Minimum - Vessel 367000003\n  Speed: 10.2 knots, Course: 6.0°\n  Sentence: $GPRMC,080921.663,A,3747.6566,N,12222.4868,W,10.2,6.0,090725,0.0,E,N*22
\n\n[08:09:22] GPS Fix Data - Vessel 367000001 (CONTAINER_SHIP_01)\n  Position: 37.788935, -122.390035\n  Sentence: $GPGGA,080922.663,3747.3361,N,12223.4021,W,1,8,1.2,0.0,M,19.6,M,,*7E
\n\n[08:09:22] GPS Recommended Minimum - Vessel 367000001\n  Speed: 9.4 knots, Course: 158.0°\n  Sentence: $GPRMC,080922.663,A,3747.3361,N,12223.4021,W,9.4,158.0,090725,0.0,E,N*15
\n\n[08:09:22] GPS Fix Data - Vessel 367000002 (TANKER_02)\n  Position: 37.830090, -122.472000\n  Sentence: $GPGGA,080922.663,3749.8054,N,12228.3200,W,1,8,1.2,0.0,M,19.6,M,,*73
\n\n[08:09:22] GPS Recommended Minimum - Vessel 367000002\n  Speed: 5.1 knots, Course: 65.0°\n  Sentence: $GPRMC,080922.663,A,3749.8054,N,12228.3200,W,5.1,65.0,090725,0.0,E,N*2E
\n\n[08:09:22] GPS Fix Data - Vessel 367000003 (FISHING_VESSEL_03)\n  Position: 37.794321, -122.374776\n  Sentence: $GPGGA,080922.663,3747.6593,N,12222.4866,W,1,8,1.2,0.0,M,19.6,M,,*7A
\n\n[08:09:22] GPS Recommended Minimum - Vessel 367000003\n  Speed: 10.1 knots, Course: 6.0°\n  Sentence: $GPRMC,080922.663,A,3747.6593,N,12222.4866,W,10.1,6.0,090725,0.0,E,N*26
\n\n[08:09:23] GPS Fix Data - Vessel 367000001 (CONTAINER_SHIP_01)\n  Position: 37.788897, -122.390003\n  Sentence: $GPGGA,080923.663,3747.3338,N,12223.4002,W,1,8,1.2,0.0,M,19.6,M,,*72
\n\n[08:09:23] GPS Recommended Minimum - Vessel 367000001\n  Speed: 9.4 knots, Course: 158.0°\n  Sentence: $GPRMC,080923.663,A,3747.3338,N,12223.4002,W,9.4,158.0,090725,0.0,E,N*19
\n\n[08:09:23] GPS Fix Data - Vessel 367000002 (TANKER_02)\n  Position: 37.830103, -122.471961\n  Sentence: $GPGGA,080923.663,3749.8062,N,12228.3177,W,1,8,1.2,0.0,M,19.6,M,,*74
\n\n[08:09:23] GPS Recommended Minimum - Vessel 367000002\n  Speed: 5.1 knots, Course: 65.0°\n  Sentence: $GPRMC,080923.663,A,3749.8062,N,12228.3177,W,5.1,65.0,090725,0.0,E,N*29
\n\n[08:09:23] GPS Fix Data - Vessel 367000003 (FISHING_VESSEL_03)\n  Position: 37.794370, -122.374758\n  Sentence: $GPGGA,080923.663,3747.6622,N,12222.4855,W,1,8,1.2,0.0,M,19.6,M,,*72
\n\n[08:09:23] GPS Recommended Minimum - Vessel 367000003\n  Speed: 10.1 knots, Course: 6.0°\n  Sentence: $GPRMC,080923.663,A,3747.6622,N,12222.4855,W,10.1,6.0,090725,0.0,E,N*2E
\n\n[08:09:24] GPS Fix Data - Vessel 367000001 (CONTAINER_SHIP_01)\n  Position: 37.788857, -122.389989\n  Sentence: $GPGGA,080924.663,3747.3314,N,12223.3994,W,1,8,1.2,0.0,M,19.6,M,,*7A
\n\n[08:09:24] GPS Recommended Minimum - Vessel 367000001\n  Speed: 9.5 knots, Course: 158.0°\n  Sentence: $GPRMC,080924.663,A,3747.3314,N,12223.3994,W,9.5,158.0,090725,0.0,E,N*10
\n\n[08:09:24] GPS Fix Data - Vessel 367000002 (TANKER_02)\n  Position: 37.830114, -122.471941\n  Sentence: $GPGGA,080924.663,3749.8068,N,12228.3165,W,1,8,1.2,0.0,M,19.6,M,,*7A
\n\n[08:09:24] GPS Recommended Minimum - Vessel 367000002\n  Speed: 5.2 knots, Course: 65.0°\n  Sentence: $GPRMC,080924.663,A,3749.8068,N,12228.3165,W,5.2,65.0,090725,0.0,E,N*24
\n\n[08:09:24] GPS Fix Data - Vessel 367000003 (FISHING_VESSEL_03)\n  Position: 37.794418, -122.374759\n  Sentence: $GPGGA,080924.663,3747.6651,N,12222.4856,W,1,8,1.2,0.0,M,19.6,M,,*72
\n\n[08:09:24] GPS Recommended Minimum - Vessel 367000003\n  Speed: 10.2 knots, Course: 6.0°\n  Sentence: $GPRMC,080924.663,A,3747.6651,N,12222.4856,W,10.2,6.0,090725,0.0,E,N*2D
\n\n[08:09:25] GPS Fix Data - Vessel 367000001 (CONTAINER_SHIP_01)\n  Position: 37.788821, -122.389956\n  Sentence: $GPGGA,080925.663,3747.3292,N,12223.3974,W,1,8,1.2,0.0,M,19.6,M,,*7A
\n\n[08:09:25] GPS Recommended Minimum - Vessel 367000001\n  Speed: 9.1 knots, Course: 158.0°\n  Sentence: $GPRMC,080925.663,A,3747.3292,N,12223.3974,W,9.1,158.0,090725,0.0,E,N*14
\n\n[08:09:25] GPS Fix Data - Vessel 367000002 (TANKER_02)\n  Position: 37.830126, -122.471902\n  Sentence: $GPGGA,080925.663,3749.8076,N,12228.3141,W,1,8,1.2,0.0,M,19.6,M,,*72
\n\n[08:09:25] GPS Recommended Minimum - Vessel 367000002\n  Speed: 4.8 knots, Course: 65.0°\n  Sentence: $GPRMC,080925.663,A,3749.8076,N,12228.3141,W,4.8,65.0,090725,0.0,E,N*27
\n\n[08:09:25] GPS Fix Data - Vessel 367000003 (FISHING_VESSEL_03)\n  Position: 37.794465, -122.374740\n  Sentence: $GPGGA,080925.663,3747.6679,N,12222.4844,W,1,8,1.2,0.0,M,19.6,M,,*7A
\n\n[08:09:25] GPS Recommended Minimum - Vessel 367000003\n  Speed: 9.8 knots, Course: 6.0°\n  Sentence: $GPRMC,080925.663,A,3747.6679,N,12222.4844,W,9.8,6.0,090725,0.0,E,N*17
\n\n[08:09:26] GPS Fix Data - Vessel 367000001 (CONTAINER_SHIP_01)\n  Position: 37.788780, -122.389931\n  Sentence: $GPGGA,080926.663,3747.3268,N,12223.3958,W,1,8,1.2,0.0,M,19.6,M,,*72
\n\n[08:09:26] GPS Recommended Minimum - Vessel 367000001\n  Speed: 9.3 knots, Course: 158.0°\n  Sentence: $GPRMC,080926.663,A,3747.3268,N,12223.3958,W,9.3,158.0,090725,0.0,E,N*1E
\n\n[08:09:26] GPS Fix Data - Vessel 367000002 (TANKER_02)\n  Position: 37.830135, -122.471870\n  Sentence: $GPGGA,080926.663,3749.8081,N,12228.3122,W,1,8,1.2,0.0,M,19.6,M,,*7C
\n\n[08:09:26] GPS Recommended Minimum - Vessel 367000002\n  Speed: 5.1 knots, Course: 65.0°\n  Sentence: $GPRMC,080926.663,A,3749.8081,N,12228.3122,W,5.1,65.0,090725,0.0,E,N*21
\n\n[08:09:26] GPS Fix Data - Vessel 367000003 (FISHING_VESSEL_03)\n  Position: 37.794510, -122.374729\n  Sentence: $GPGGA,080926.663,3747.6706,N,12222.4837,W,1,8,1.2,0.0,M,19.6,M,,*74
\n\n[08:09:26] GPS Recommended Minimum - Vessel 367000003\n  Speed: 10.0 knots, Course: 6.0°\n  Sentence: $GPRMC,080926.663,A,3747.6706,N,12222.4837,W,10.0,6.0,090725,0.0,E,N*29
\n\n[08:09:27] GPS Fix Data - Vessel 367000001 (CONTAINER_SHIP_01)\n  Position: 37.788738, -122.389906\n  Sentence: $GPGGA,080927.663,3747.3243,N,12223.3943,W,1,8,1.2,0.0,M,19.6,M,,*70
\n\n[08:09:27] GPS Recommended Minimum - Vessel 367000001\n  Speed: 9.0 knots, Course: 158.0°\n  Sentence: $GPRMC,080927.663,A,3747.3243,N,12223.3943,W,9.0,158.0,090725,0.0,E,N*1F
\n\n[08:09:27] GPS Fix Data - Vessel 367000002 (TANKER_02)\n  Position: 37.830141, -122.471840\n  Sentence: $GPGGA,080927.663,3749.8085,N,12228.3104,W,1,8,1.2,0.0,M,19.6,M,,*7D
\n\n[08:09:27] GPS Recommended Minimum - Vessel 367000002\n  Speed: 4.8 knots, Course: 65.0°\n  Sentence: $GPRMC,080927.663,A,3749.8085,N,12228.3104,W,4.8,65.0,090725,0.0,E,N*28
\n\n[08:09:27] GPS Fix Data - Vessel 367000003 (FISHING_VESSEL_03)\n  Position: 37.794552, -122.374718\n  Sentence: $GPGGA,080927.663,3747.6731,N,12222.4831,W,1,8,1.2,0.0,M,19.6,M,,*77
\n\n[08:09:27] GPS Recommended Minimum - Vessel 367000003\n  Speed: 9.8 knots, Course: 6.0°\n  Sentence: $GPRMC,080927.663,A,3747.6731,N,12222.4831,W,9.8,6.0,090725,0.0,E,N*1A
\n\n[08:09:28] GPS Fix Data - Vessel 367000001 (CONTAINER_SHIP_01)\n  Position: 37.788694, -122.389881\n  Sentence: $GPGGA,080928.663,3747.3217,N,12223.3929,W,1,8,1.2,0.0,M,19.6,M,,*72
\n\n[08:09:28] GPS Recommended Minimum - Vessel 367000001\n  Speed: 9.5 knots, Course: 158.0°\n  Sentence: $GPRMC,080928.663,A,3747.3217,N,12223.3929,W,9.5,158.0,090725,0.0,E,N*18
\n\n[08:09:28] GPS Fix Data - Vessel 367000002 (TANKER_02)\n  Position: 37.830149, -122.471809\n  Sentence: $GPGGA,080928.663,3749.8089,N,12228.3085,W,1,8,1.2,0.0,M,19.6,M,,*76
\n\n[08:09:28] GPS Recommended Minimum - Vessel 367000002\n  Speed: 5.2 knots, Course: 65.0°\n  Sentence: $GPRMC,080928.663,A,3749.8089,N,12228.3085,W,5.2,65.0,090725,0.0,E,N*28
\n\n[08:09:28] GPS Fix Data - Vessel 367000003 (FISHING_VESSEL_03)\n  Position: 37.794597, -122.374708\n  Sentence: $GPGGA,080928.663,3747.6758,N,12222.4825,W,1,8,1.2,0.0,M,19.6,M,,*72
\n\n[08:09:28] GPS Recommended Minimum - Vessel 367000003\n  Speed: 10.2 knots, Course: 6.0°\n  Sentence: $GPRMC,080928.663,A,3747.6758,N,12222.4825,W,10.2,6.0,090725,0.0,E,N*2D
\n\n[08:09:29] GPS Fix Data - Vessel 367000001 (CONTAINER_SHIP_01)\n  Position: 37.788662, -122.389872\n  Sentence: $GPGGA,080929.663,3747.3197,N,12223.3923,W,1,8,1.2,0.0,M,19.6,M,,*72
\n\n[08:09:29] GPS Recommended Minimum - Vessel 367000001\n  Speed: 9.4 knots, Course: 158.0°\n  Sentence: $GPRMC,080929.663,A,3747.3197,N,12223.3923,W,9.4,158.0,090725,0.0,E,N*19
\n\n[08:09:29] GPS Fix Data - Vessel 367000002 (TANKER_02)\n  Position: 37.830166, -122.471793\n  Sentence: $GPGGA,080929.663,3749.8100,N,12228.3076,W,1,8,1.2,0.0,M,19.6,M,,*7B
\n\n[08:09:29] GPS Recommended Minimum - Vessel 367000002\n  Speed: 5.1 knots, Course: 65.0°\n  Sentence: $GPRMC,080929.663,A,3749.8100,N,12228.3076,W,5.1,65.0,090725,0.0,E,N*26
\n\n[08:09:29] GPS Fix Data - Vessel 367000003 (FISHING_VESSEL_03)\n  Position: 37.794651, -122.374713\n  Sentence: $GPGGA,080929.663,3747.6791,N,12222.4828,W,1,8,1.2,0.0,M,19.6,M,,*7B
\n\n[08:09:29] GPS Recommended Minimum - Vessel 367000003\n  Speed: 10.1 knots, Course: 6.0°\n  Sentence: $GPRMC,080929.663,A,3747.6791,N,12222.4828,W,10.1,6.0,090725,0.0,E,N*27
\n\n[08:09:30] GPS Fix Data - Vessel 367000001 (CONTAINER_SHIP_01)\n  Position: 37.788606, -122.389877\n  Sentence: $GPGGA,080930.663,3747.3164,N,12223.3926,W,1,8,1.2,0.0,M,19.6,M,,*73
\n\n[08:09:30] GPS Recommended Minimum - Vessel 367000001\n  Speed: 9.5 knots, Course: 158.0°\n  Sentence: $GPRMC,080930.663,A,3747.3164,N,12223.3926,W,9.5,158.0,090725,0.0,E,N*19
\n\n[08:09:30] GPS Fix Data - Vessel 367000002 (TANKER_02)\n  Position: 37.830161, -122.471792\n  Sentence: $GPGGA,080930.663,3749.8097,N,12228.3075,W,1,8,1.2,0.0,M,19.6,M,,*7F
\n\n[08:09:30] GPS Recommended Minimum - Vessel 367000002\n  Speed: 5.2 knots, Course: 65.0°\n  Sentence: $GPRMC,080930.663,A,3749.8097,N,12228.3075,W,5.2,65.0,090725,0.0,E,N*21
\n\n[08:09:30] GPS Fix Data - Vessel 367000003 (FISHING_VESSEL_03)\n  Position: 37.794683, -122.374733\n  Sentence: $GPGGA,080930.663,3747.6810,N,12222.4840,W,1,8,1.2,0.0,M,19.6,M,,*7B
\n\n[08:09:30] GPS Recommended Minimum - Vessel 367000003\n  Speed: 10.2 knots, Course: 6.0°\n  Sentence: $GPRMC,080930.663,A,3747.6810,N,12222.4840,W,10.2,6.0,090725,0.0,E,N*24
\n\n[08:09:30] AIS Type 1 - Vessel 367000001 (CONTAINER_SHIP_01)\n  Position Report Class A\n  Position: 37.788606, -122.389877\n  Speed: 9.5 knots, Course: 158.0°\n  Heading: 158°\n  Sentence: !AIVDM,1,1,,A,15Mwqh@01OG?gUlEWo36;4tt0000,0*5E\n  Input Data: {
    "message_type": 1,
    "mmsi": 367000001,
    "nav_status": 0,
    "rot": 0,
    "sog": 9.451100931693084,
    "position_accuracy": 0,
    "longitude": -122.38987716473754,
    "latitude": 37.78860630879989,
    "cog": 158,
    "heading": 158,
    "timestamp": 30,
    "raim": 0,
    "radio_status": 0
}\n\n[08:09:30] AIS Type 2 - Vessel 367000001 (CONTAINER_SHIP_01)\n  Position Report Class A\n  Position: 37.788606, -122.389877\n  Speed: 9.5 knots, Course: 158.0°\n  Heading: 158°\n  Sentence: !AIVDM,1,1,,A,25Mwqh@01OG?gUlEWo36;4tt0000,0*5D\n  Input Data: {
    "message_type": 2,
    "mmsi": 367000001,
    "nav_status": 0,
    "rot": 0,
    "sog": 9.451100931693084,
    "position_accuracy": 0,
    "longitude": -122.38987716473754,
    "latitude": 37.78860630879989,
    "cog": 158,
    "heading": 158,
    "timestamp": 30,
    "raim": 0,
    "radio_status": 0
}\n\n[08:09:30] AIS Type 3 - Vessel 367000001 (CONTAINER_SHIP_01)\n  Position Report Class A\n  Position: 37.788606, -122.389877\n  Speed: 9.5 knots, Course: 158.0°\n  Heading: 158°\n  Sentence: !AIVDM,1,1,,A,35Mwqh@01OG?gUlEWo36;4tt0000,0*5C\n  Input Data: {
    "message_type": 3,
    "mmsi": 367000001,
    "nav_status": 0,
    "rot": 0,
    "sog": 9.451100931693084,
    "position_accuracy": 0,
    "longitude": -122.38987716473754,
    "latitude": 37.78860630879989,
    "cog": 158,
    "heading": 158,
    "timestamp": 30,
    "raim": 0,
    "radio_status": 0
}\n\n[08:09:30] AIS Type 1 - Vessel 367000002 (TANKER_02)\n  Position Report Class A\n  Position: 37.830161, -122.471792\n  Speed: 5.2 knots, Course: 65.0°\n  Heading: 65°\n  Sentence: !AIVDM,1,1,,A,15MwqhP00lG?GUrEaHLBRR2t0000,0*01\n  Input Data: {
    "message_type": 1,
    "mmsi": 367000002,
    "nav_status": 0,
    "rot": 0,
    "sog": 5.1577709053198655,
    "position_accuracy": 0,
    "longitude": -122.47179164574419,
    "latitude": 37.83016137723259,
    "cog": 65,
    "heading": 65,
    "timestamp": 30,
    "raim": 0,
    "radio_status": 0
}\n\n[08:09:30] AIS Type 2 - Vessel 367000002 (TANKER_02)\n  Position Report Class A\n  Position: 37.830161, -122.471792\n  Speed: 5.2 knots, Course: 65.0°\n  Heading: 65°\n  Sentence: !AIVDM,1,1,,A,25MwqhP00lG?GUrEaHLBRR2t0000,0*02\n  Input Data: {
    "message_type": 2,
    "mmsi": 367000002,
    "nav_status": 0,
    "rot": 0,
    "sog": 5.1577709053198655,
    "position_accuracy": 0,
    "longitude": -122.47179164574419,
    "latitude": 37.83016137723259,
    "cog": 65,
    "heading": 65,
    "timestamp": 30,
    "raim": 0,
    "radio_status": 0
}\n\n[08:09:30] AIS Type 3 - Vessel 367000002 (TANKER_02)\n  Position Report Class A\n  Position: 37.830161, -122.471792\n  Speed: 5.2 knots, Course: 65.0°\n  Heading: 65°\n  Sentence: !AIVDM,1,1,,A,35MwqhP00lG?GUrEaHLBRR2t0000,0*03\n  Input Data: {
    "message_type": 3,
    "mmsi": 367000002,
    "nav_status": 0,
    "rot": 0,
    "sog": 5.1577709053198655,
    "position_accuracy": 0,
    "longitude": -122.47179164574419,
    "latitude": 37.83016137723259,
    "cog": 65,
    "heading": 65,
    "timestamp": 30,
    "raim": 0,
    "radio_status": 0
}\n\n[08:09:30] AIS Type 1 - Vessel 367000003 (FISHING_VESSEL_03)\n  Position Report Class A\n  Position: 37.794683, -122.374733\n  Speed: 10.2 knots, Course: 6.0°\n  Heading: 6°\n  Sentence: !AIVDM,1,1,,A,15Mwqhh01VG?l1hE`5BP?0<t0000,0*36\n  Input Data: {
    "message_type": 1,
    "mmsi": 367000003,
    "nav_status": 0,
    "rot": 0,
    "sog": 10.154368224849303,
    "position_accuracy": 0,
    "longitude": -122.37473288559384,
    "latitude": 37.79468262569174,
    "cog": 6,
    "heading": 6,
    "timestamp": 30,
    "raim": 0,
    "radio_status": 0
}\n\n[08:09:30] AIS Type 2 - Vessel 367000003 (FISHING_VESSEL_03)\n  Position Report Class A\n  Position: 37.794683, -122.374733\n  Speed: 10.2 knots, Course: 6.0°\n  Heading: 6°\n  Sentence: !AIVDM,1,1,,A,25Mwqhh01VG?l1hE`5BP?0<t0000,0*35\n  Input Data: {
    "message_type": 2,
    "mmsi": 367000003,
    "nav_status": 0,
    "rot": 0,
    "sog": 10.154368224849303,
    "position_accuracy": 0,
    "longitude": -122.37473288559384,
    "latitude": 37.79468262569174,
    "cog": 6,
    "heading": 6,
    "timestamp": 30,
    "raim": 0,
    "radio_status": 0
}\n\n[08:09:30] AIS Type 3 - Vessel 367000003 (FISHING_VESSEL_03)\n  Position Report Class A\n  Position: 37.794683, -122.374733\n  Speed: 10.2 knots, Course: 6.0°\n  Heading: 6°\n  Sentence: !AIVDM,1,1,,A,35Mwqhh01VG?l1hE`5BP?0<t0000,0*34\n  Input Data: {
    "message_type": 3,
    "mmsi": 367000003,
    "nav_status": 0,
    "rot": 0,
    "sog": 10.154368224849303,
    "position_accuracy": 0,
    "longitude": -122.37473288559384,
    "latitude": 37.79468262569174,
    "cog": 6,
    "heading": 6,
    "timestamp": 30,
    "raim": 0,
    "radio_status": 0
}\n\n[08:09:31] GPS Fix Data - Vessel 367000001 (CONTAINER_SHIP_01)\n  Position: 37.788558, -122.389848\n  Sentence: $GPGGA,080931.663,3747.3135,N,12223.3909,W,1,8,1.2,0.0,M,19.6,M,,*7B
\n\n[08:09:31] GPS Recommended Minimum - Vessel 367000001\n  Speed: 9.2 knots, Course: 158.0°\n  Sentence: $GPRMC,080931.663,A,3747.3135,N,12223.3909,W,9.2,158.0,090725,0.0,E,N*16
\n\n[08:09:31] GPS Fix Data - Vessel 367000002 (TANKER_02)\n  Position: 37.830162, -122.471757\n  Sentence: $GPGGA,080931.663,3749.8097,N,12228.3054,W,1,8,1.2,0.0,M,19.6,M,,*7D
\n\n[08:09:31] GPS Recommended Minimum - Vessel 367000002\n  Speed: 4.9 knots, Course: 65.0°\n  Sentence: $GPRMC,080931.663,A,3749.8097,N,12228.3054,W,4.9,65.0,090725,0.0,E,N*29
\n\n[08:09:31] GPS Fix Data - Vessel 367000003 (FISHING_VESSEL_03)\n  Position: 37.794719, -122.374718\n  Sentence: $GPGGA,080931.663,3747.6831,N,12222.4831,W,1,8,1.2,0.0,M,19.6,M,,*7F
\n\n[08:09:31] GPS Recommended Minimum - Vessel 367000003\n  Speed: 9.9 knots, Course: 6.0°\n  Sentence: $GPRMC,080931.663,A,3747.6831,N,12222.4831,W,9.9,6.0,090725,0.0,E,N*13
\n\n[08:09:32] GPS Fix Data - Vessel 367000001 (CONTAINER_SHIP_01)\n  Position: 37.788505, -122.389819\n  Sentence: $GPGGA,080932.663,3747.3103,N,12223.3891,W,1,8,1.2,0.0,M,19.6,M,,*7D
\n\n[08:09:32] GPS Recommended Minimum - Vessel 367000001\n  Speed: 9.5 knots, Course: 158.0°\n  Sentence: $GPRMC,080932.663,A,3747.3103,N,12223.3891,W,9.5,158.0,090725,0.0,E,N*17
\n\n[08:09:32] GPS Fix Data - Vessel 367000002 (TANKER_02)\n  Position: 37.830160, -122.471721\n  Sentence: $GPGGA,080932.663,3749.8096,N,12228.3032,W,1,8,1.2,0.0,M,19.6,M,,*7F
\n\n[08:09:32] GPS Recommended Minimum - Vessel 367000002\n  Speed: 5.2 knots, Course: 65.0°\n  Sentence: $GPRMC,080932.663,A,3749.8096,N,12228.3032,W,5.2,65.0,090725,0.0,E,N*21
\n\n[08:09:32] GPS Fix Data - Vessel 367000003 (FISHING_VESSEL_03)\n  Position: 37.794754, -122.374703\n  Sentence: $GPGGA,080932.663,3747.6852,N,12222.4822,W,1,8,1.2,0.0,M,19.6,M,,*7B
\n\n[08:09:32] GPS Recommended Minimum - Vessel 367000003\n  Speed: 10.2 knots, Course: 6.0°\n  Sentence: $GPRMC,080932.663,A,3747.6852,N,12222.4822,W,10.2,6.0,090725,0.0,E,N*24
\n\n[08:09:33] GPS Fix Data - Vessel 367000001 (CONTAINER_SHIP_01)\n  Position: 37.788465, -122.389802\n  Sentence: $GPGGA,080933.663,3747.3079,N,12223.3881,W,1,8,1.2,0.0,M,19.6,M,,*71
\n\n[08:09:33] GPS Recommended Minimum - Vessel 367000001\n  Speed: 9.1 knots, Course: 158.0°\n  Sentence: $GPRMC,080933.663,A,3747.3079,N,12223.3881,W,9.1,158.0,090725,0.0,E,N*1F
\n\n[08:09:33] GPS Fix Data - Vessel 367000002 (TANKER_02)\n  Position: 37.830168, -122.471698\n  Sentence: $GPGGA,080933.663,3749.8101,N,12228.3019,W,1,8,1.2,0.0,M,19.6,M,,*78
\n\n[08:09:33] GPS Recommended Minimum - Vessel 367000002\n  Speed: 4.8 knots, Course: 65.0°\n  Sentence: $GPRMC,080933.663,A,3749.8101,N,12228.3019,W,4.8,65.0,090725,0.0,E,N*2D
\n\n[08:09:33] GPS Fix Data - Vessel 367000003 (FISHING_VESSEL_03)\n  Position: 37.794798, -122.374700\n  Sentence: $GPGGA,080933.663,3747.6879,N,12222.4820,W,1,8,1.2,0.0,M,19.6,M,,*71
\n\n[08:09:33] GPS Recommended Minimum - Vessel 367000003\n  Speed: 9.8 knots, Course: 6.0°\n  Sentence: $GPRMC,080933.663,A,3747.6879,N,12222.4820,W,9.8,6.0,090725,0.0,E,N*1C
\n\n[08:09:34] GPS Fix Data - Vessel 367000001 (CONTAINER_SHIP_01)\n  Position: 37.788433, -122.389775\n  Sentence: $GPGGA,080934.663,3747.3060,N,12223.3865,W,1,8,1.2,0.0,M,19.6,M,,*74
\n\n[08:09:34] GPS Recommended Minimum - Vessel 367000001\n  Speed: 9.4 knots, Course: 158.0°\n  Sentence: $GPRMC,080934.663,A,3747.3060,N,12223.3865,W,9.4,158.0,090725,0.0,E,N*1F
\n\n[08:09:34] GPS Fix Data - Vessel 367000002 (TANKER_02)\n  Position: 37.830186, -122.471665\n  Sentence: $GPGGA,080934.663,3749.8112,N,12228.2999,W,1,8,1.2,0.0,M,19.6,M,,*7D
\n\n[08:09:34] GPS Recommended Minimum - Vessel 367000002\n  Speed: 5.1 knots, Course: 65.0°\n  Sentence: $GPRMC,080934.663,A,3749.8112,N,12228.2999,W,5.1,65.0,090725,0.0,E,N*20
\n\n[08:09:34] GPS Fix Data - Vessel 367000003 (FISHING_VESSEL_03)\n  Position: 37.794853, -122.374688\n  Sentence: $GPGGA,080934.663,3747.6912,N,12222.4813,W,1,8,1.2,0.0,M,19.6,M,,*7A
\n\n[08:09:34] GPS Recommended Minimum - Vessel 367000003\n  Speed: 10.1 knots, Course: 6.0°\n  Sentence: $GPRMC,080934.663,A,3747.6912,N,12222.4813,W,10.1,6.0,090725,0.0,E,N*26
\n\n[08:09:35] GPS Fix Data - Vessel 367000001 (CONTAINER_SHIP_01)\n  Position: 37.788399, -122.389750\n  Sentence: $GPGGA,080935.663,3747.3039,N,12223.3850,W,1,8,1.2,0.0,M,19.6,M,,*7F
\n\n[08:09:35] GPS Recommended Minimum - Vessel 367000001\n  Speed: 9.4 knots, Course: 158.0°\n  Sentence: $GPRMC,080935.663,A,3747.3039,N,12223.3850,W,9.4,158.0,090725,0.0,E,N*14
\n\n[08:09:35] GPS Fix Data - Vessel 367000002 (TANKER_02)\n  Position: 37.830203, -122.471633\n  Sentence: $GPGGA,080935.663,3749.8122,N,12228.2980,W,1,8,1.2,0.0,M,19.6,M,,*77
\n\n[08:09:35] GPS Recommended Minimum - Vessel 367000002\n  Speed: 5.1 knots, Course: 65.0°\n  Sentence: $GPRMC,080935.663,A,3749.8122,N,12228.2980,W,5.1,65.0,090725,0.0,E,N*2A
\n\n[08:09:35] GPS Fix Data - Vessel 367000003 (FISHING_VESSEL_03)\n  Position: 37.794906, -122.374677\n  Sentence: $GPGGA,080935.663,3747.6943,N,12222.4806,W,1,8,1.2,0.0,M,19.6,M,,*7B
\n\n[08:09:35] GPS Recommended Minimum - Vessel 367000003\n  Speed: 10.1 knots, Course: 6.0°\n  Sentence: $GPRMC,080935.663,A,3747.6943,N,12222.4806,W,10.1,6.0,090725,0.0,E,N*27
\n\n[08:09:36] GPS Fix Data - Vessel 367000001 (CONTAINER_SHIP_01)\n  Position: 37.788352, -122.389734\n  Sentence: $GPGGA,080936.663,3747.3011,N,12223.3840,W,1,8,1.2,0.0,M,19.6,M,,*77
\n\n[08:09:36] GPS Recommended Minimum - Vessel 367000001\n  Speed: 9.2 knots, Course: 158.0°\n  Sentence: $GPRMC,080936.663,A,3747.3011,N,12223.3840,W,9.2,158.0,090725,0.0,E,N*1A
\n\n[08:09:36] GPS Fix Data - Vessel 367000002 (TANKER_02)\n  Position: 37.830205, -122.471611\n  Sentence: $GPGGA,080936.663,3749.8123,N,12228.2967,W,1,8,1.2,0.0,M,19.6,M,,*7C
\n\n[08:09:36] GPS Recommended Minimum - Vessel 367000002\n  Speed: 4.9 knots, Course: 65.0°\n  Sentence: $GPRMC,080936.663,A,3749.8123,N,12228.2967,W,4.9,65.0,090725,0.0,E,N*28
\n\n[08:09:36] GPS Fix Data - Vessel 367000003 (FISHING_VESSEL_03)\n  Position: 37.794944, -122.374675\n  Sentence: $GPGGA,080936.663,3747.6966,N,12222.4805,W,1,8,1.2,0.0,M,19.6,M,,*7C
\n\n[08:09:36] GPS Recommended Minimum - Vessel 367000003\n  Speed: 9.9 knots, Course: 6.0°\n  Sentence: $GPRMC,080936.663,A,3747.6966,N,12222.4805,W,9.9,6.0,090725,0.0,E,N*10
\n\n[08:09:37] GPS Fix Data - Vessel 367000001 (CONTAINER_SHIP_01)\n  Position: 37.788309, -122.389690\n  Sentence: $GPGGA,080937.663,3747.2986,N,12223.3814,W,1,8,1.2,0.0,M,19.6,M,,*71
\n\n[08:09:37] GPS Recommended Minimum - Vessel 367000001\n  Speed: 9.4 knots, Course: 158.0°\n  Sentence: $GPRMC,080937.663,A,3747.2986,N,12223.3814,W,9.4,158.0,090725,0.0,E,N*1A
\n\n[08:09:37] GPS Fix Data - Vessel 367000002 (TANKER_02)\n  Position: 37.830213, -122.471561\n  Sentence: $GPGGA,080937.663,3749.8128,N,12228.2936,W,1,8,1.2,0.0,M,19.6,M,,*72
\n\n[08:09:37] GPS Recommended Minimum - Vessel 367000002\n  Speed: 5.1 knots, Course: 65.0°\n  Sentence: $GPRMC,080937.663,A,3749.8128,N,12228.2936,W,5.1,65.0,090725,0.0,E,N*2F
\n\n[08:09:37] GPS Fix Data - Vessel 367000003 (FISHING_VESSEL_03)\n  Position: 37.794988, -122.374646\n  Sentence: $GPGGA,080937.663,3747.6993,N,12222.4787,W,1,8,1.2,0.0,M,19.6,M,,*72
\n\n[08:09:37] GPS Recommended Minimum - Vessel 367000003\n  Speed: 10.1 knots, Course: 6.0°\n  Sentence: $GPRMC,080937.663,A,3747.6993,N,12222.4787,W,10.1,6.0,090725,0.0,E,N*2E
\n\n[08:09:38] GPS Fix Data - Vessel 367000001 (CONTAINER_SHIP_01)\n  Position: 37.788259, -122.389662\n  Sentence: $GPGGA,080938.663,3747.2955,N,12223.3797,W,1,8,1.2,0.0,M,19.6,M,,*74
\n\n[08:09:38] GPS Recommended Minimum - Vessel 367000001\n  Speed: 9.2 knots, Course: 158.0°\n  Sentence: $GPRMC,080938.663,A,3747.2955,N,12223.3797,W,9.2,158.0,090725,0.0,E,N*19
\n\n[08:09:38] GPS Fix Data - Vessel 367000002 (TANKER_02)\n  Position: 37.830212, -122.471527\n  Sentence: $GPGGA,080938.663,3749.8127,N,12228.2916,W,1,8,1.2,0.0,M,19.6,M,,*70
\n\n[08:09:38] GPS Recommended Minimum - Vessel 367000002\n  Speed: 4.9 knots, Course: 65.0°\n  Sentence: $GPRMC,080938.663,A,3749.8127,N,12228.2916,W,4.9,65.0,090725,0.0,E,N*24
\n\n[08:09:38] GPS Fix Data - Vessel 367000003 (FISHING_VESSEL_03)\n  Position: 37.795023, -122.374632\n  Sentence: $GPGGA,080938.663,3747.7014,N,12222.4779,W,1,8,1.2,0.0,M,19.6,M,,*7B
\n\n[08:09:38] GPS Recommended Minimum - Vessel 367000003\n  Speed: 9.9 knots, Course: 6.0°\n  Sentence: $GPRMC,080938.663,A,3747.7014,N,12222.4779,W,9.9,6.0,090725,0.0,E,N*17
\n\n[08:09:39] GPS Fix Data - Vessel 367000001 (CONTAINER_SHIP_01)\n  Position: 37.788223, -122.389633\n  Sentence: $GPGGA,080939.663,3747.2934,N,12223.3780,W,1,8,1.2,0.0,M,19.6,M,,*74
\n\n[08:09:39] GPS Recommended Minimum - Vessel 367000001\n  Speed: 9.6 knots, Course: 158.0°\n  Sentence: $GPRMC,080939.663,A,3747.2934,N,12223.3780,W,9.6,158.0,090725,0.0,E,N*1D
\n\n[08:09:39] GPS Fix Data - Vessel 367000002 (TANKER_02)\n  Position: 37.830227, -122.471490\n  Sentence: $GPGGA,080939.663,3749.8136,N,12228.2894,W,1,8,1.2,0.0,M,19.6,M,,*7A
\n\n[08:09:39] GPS Recommended Minimum - Vessel 367000002\n  Speed: 5.3 knots, Course: 65.0°\n  Sentence: $GPRMC,080939.663,A,3749.8136,N,12228.2894,W,5.3,65.0,090725,0.0,E,N*25
\n\n[08:09:39] GPS Fix Data - Vessel 367000003 (FISHING_VESSEL_03)\n  Position: 37.795075, -122.374617\n  Sentence: $GPGGA,080939.663,3747.7045,N,12222.4770,W,1,8,1.2,0.0,M,19.6,M,,*77
\n\n[08:09:39] GPS Recommended Minimum - Vessel 367000003\n  Speed: 10.3 knots, Course: 6.0°\n  Sentence: $GPRMC,080939.663,A,3747.7045,N,12222.4770,W,10.3,6.0,090725,0.0,E,N*29
\n\n[08:09:40] GPS Fix Data - Vessel 367000001 (CONTAINER_SHIP_01)\n  Position: 37.788180, -122.389626\n  Sentence: $GPGGA,080940.663,3747.2908,N,12223.3775,W,1,8,1.2,0.0,M,19.6,M,,*7F
\n\n[08:09:40] GPS Recommended Minimum - Vessel 367000001\n  Speed: 9.6 knots, Course: 158.0°\n  Sentence: $GPRMC,080940.663,A,3747.2908,N,12223.3775,W,9.6,158.0,090725,0.0,E,N*16
\n\n[08:09:40] GPS Fix Data - Vessel 367000002 (TANKER_02)\n  Position: 37.830236, -122.471476\n  Sentence: $GPGGA,080940.663,3749.8142,N,12228.2886,W,1,8,1.2,0.0,M,19.6,M,,*74
\n\n[08:09:40] GPS Recommended Minimum - Vessel 367000002\n  Speed: 5.3 knots, Course: 65.0°\n  Sentence: $GPRMC,080940.663,A,3749.8142,N,12228.2886,W,5.3,65.0,090725,0.0,E,N*2B
\n\n[08:09:40] GPS Fix Data - Vessel 367000003 (FISHING_VESSEL_03)\n  Position: 37.795122, -122.374625\n  Sentence: $GPGGA,080940.663,3747.7073,N,12222.4775,W,1,8,1.2,0.0,M,19.6,M,,*79
\n\n[08:09:40] GPS Recommended Minimum - Vessel 367000003\n  Speed: 10.3 knots, Course: 6.0°\n  Sentence: $GPRMC,080940.663,A,3747.7073,N,12222.4775,W,10.3,6.0,090725,0.0,E,N*27
\n\n[08:09:40] AIS Type 1 - Vessel 367000001 (CONTAINER_SHIP_01)\n  Position Report Class A\n  Position: 37.788180, -122.389626\n  Speed: 9.6 knots, Course: 158.0°\n  Heading: 158°\n  Sentence: !AIVDM,1,1,,A,15Mwqh@01PG?gbREWn36;4u@0000,0*7C\n  Input Data: {
    "message_type": 1,
    "mmsi": 367000001,
    "nav_status": 0,
    "rot": 0,
    "sog": 9.62271978966444,
    "position_accuracy": 0,
    "longitude": -122.38962583196196,
    "latitude": 37.78818047619247,
    "cog": 158,
    "heading": 158,
    "timestamp": 40,
    "raim": 0,
    "radio_status": 0
}\n\n[08:09:40] AIS Type 2 - Vessel 367000001 (CONTAINER_SHIP_01)\n  Position Report Class A\n  Position: 37.788180, -122.389626\n  Speed: 9.6 knots, Course: 158.0°\n  Heading: 158°\n  Sentence: !AIVDM,1,1,,A,25Mwqh@01PG?gbREWn36;4u@0000,0*7F\n  Input Data: {
    "message_type": 2,
    "mmsi": 367000001,
    "nav_status": 0,
    "rot": 0,
    "sog": 9.62271978966444,
    "position_accuracy": 0,
    "longitude": -122.38962583196196,
    "latitude": 37.78818047619247,
    "cog": 158,
    "heading": 158,
    "timestamp": 40,
    "raim": 0,
    "radio_status": 0
}\n\n[08:09:40] AIS Type 3 - Vessel 367000001 (CONTAINER_SHIP_01)\n  Position Report Class A\n  Position: 37.788180, -122.389626\n  Speed: 9.6 knots, Course: 158.0°\n  Heading: 158°\n  Sentence: !AIVDM,1,1,,A,35Mwqh@01PG?gbREWn36;4u@0000,0*7E\n  Input Data: {
    "message_type": 3,
    "mmsi": 367000001,
    "nav_status": 0,
    "rot": 0,
    "sog": 9.62271978966444,
    "position_accuracy": 0,
    "longitude": -122.38962583196196,
    "latitude": 37.78818047619247,
    "cog": 158,
    "heading": 158,
    "timestamp": 40,
    "raim": 0,
    "radio_status": 0
}\n\n[08:09:40] AIS Type 1 - Vessel 367000002 (TANKER_02)\n  Position Report Class A\n  Position: 37.830236, -122.471476\n  Speed: 5.3 knots, Course: 65.0°\n  Heading: 65°\n  Sentence: !AIVDM,1,1,,A,15MwqhP00mG?GclEaHWRRR3@0000,0*16\n  Input Data: {
    "message_type": 1,
    "mmsi": 367000002,
    "nav_status": 0,
    "rot": 0,
    "sog": 5.32938976329122,
    "position_accuracy": 0,
    "longitude": -122.47147642135941,
    "latitude": 37.8302364853374,
    "cog": 65,
    "heading": 65,
    "timestamp": 40,
    "raim": 0,
    "radio_status": 0
}\n\n[08:09:40] AIS Type 2 - Vessel 367000002 (TANKER_02)\n  Position Report Class A\n  Position: 37.830236, -122.471476\n  Speed: 5.3 knots, Course: 65.0°\n  Heading: 65°\n  Sentence: !AIVDM,1,1,,A,25MwqhP00mG?GclEaHWRRR3@0000,0*15\n  Input Data: {
    "message_type": 2,
    "mmsi": 367000002,
    "nav_status": 0,
    "rot": 0,
    "sog": 5.32938976329122,
    "position_accuracy": 0,
    "longitude": -122.47147642135941,
    "latitude": 37.8302364853374,
    "cog": 65,
    "heading": 65,
    "timestamp": 40,
    "raim": 0,
    "radio_status": 0
}\n\n[08:09:40] AIS Type 3 - Vessel 367000002 (TANKER_02)\n  Position Report Class A\n  Position: 37.830236, -122.471476\n  Speed: 5.3 knots, Course: 65.0°\n  Heading: 65°\n  Sentence: !AIVDM,1,1,,A,35MwqhP00mG?GclEaHWRRR3@0000,0*14\n  Input Data: {
    "message_type": 3,
    "mmsi": 367000002,
    "nav_status": 0,
    "rot": 0,
    "sog": 5.32938976329122,
    "position_accuracy": 0,
    "longitude": -122.47147642135941,
    "latitude": 37.8302364853374,
    "cog": 65,
    "heading": 65,
    "timestamp": 40,
    "raim": 0,
    "radio_status": 0
}\n\n[08:09:40] AIS Type 1 - Vessel 367000003 (FISHING_VESSEL_03)\n  Position Report Class A\n  Position: 37.795122, -122.374625\n  Speed: 10.3 knots, Course: 6.0°\n  Heading: 6°\n  Sentence: !AIVDM,1,1,,A,15Mwqhh01WG?l3jE`6D@?0=@0000,0*17\n  Input Data: {
    "message_type": 1,
    "mmsi": 367000003,
    "nav_status": 0,
    "rot": 0,
    "sog": 10.32598708282066,
    "position_accuracy": 0,
    "longitude": -122.3746253283611,
    "latitude": 37.79512185034125,
    "cog": 6,
    "heading": 6,
    "timestamp": 40,
    "raim": 0,
    "radio_status": 0
}\n\n[08:09:40] AIS Type 2 - Vessel 367000003 (FISHING_VESSEL_03)\n  Position Report Class A\n  Position: 37.795122, -122.374625\n  Speed: 10.3 knots, Course: 6.0°\n  Heading: 6°\n  Sentence: !AIVDM,1,1,,A,25Mwqhh01WG?l3jE`6D@?0=@0000,0*14\n  Input Data: {
    "message_type": 2,
    "mmsi": 367000003,
    "nav_status": 0,
    "rot": 0,
    "sog": 10.32598708282066,
    "position_accuracy": 0,
    "longitude": -122.3746253283611,
    "latitude": 37.79512185034125,
    "cog": 6,
    "heading": 6,
    "timestamp": 40,
    "raim": 0,
    "radio_status": 0
}\n\n[08:09:40] AIS Type 3 - Vessel 367000003 (FISHING_VESSEL_03)\n  Position Report Class A\n  Position: 37.795122, -122.374625\n  Speed: 10.3 knots, Course: 6.0°\n  Heading: 6°\n  Sentence: !AIVDM,1,1,,A,35Mwqhh01WG?l3jE`6D@?0=@0000,0*15\n  Input Data: {
    "message_type": 3,
    "mmsi": 367000003,
    "nav_status": 0,
    "rot": 0,
    "sog": 10.32598708282066,
    "position_accuracy": 0,
    "longitude": -122.3746253283611,
    "latitude": 37.79512185034125,
    "cog": 6,
    "heading": 6,
    "timestamp": 40,
    "raim": 0,
    "radio_status": 0
}\n\n[08:09:41] GPS Fix Data - Vessel 367000001 (CONTAINER_SHIP_01)\n  Position: 37.788150, -122.389620\n  Sentence: $GPGGA,080941.663,3747.2890,N,12223.3772,W,1,8,1.2,0.0,M,19.6,M,,*79
\n\n[08:09:41] GPS Recommended Minimum - Vessel 367000001\n  Speed: 9.2 knots, Course: 158.0°\n  Sentence: $GPRMC,080941.663,A,3747.2890,N,12223.3772,W,9.2,158.0,090725,0.0,E,N*14
\n\n[08:09:41] GPS Fix Data - Vessel 367000002 (TANKER_02)\n  Position: 37.830256, -122.471465\n  Sentence: $GPGGA,080941.663,3749.8153,N,12228.2879,W,1,8,1.2,0.0,M,19.6,M,,*75
\n\n[08:09:41] GPS Recommended Minimum - Vessel 367000002\n  Speed: 4.9 knots, Course: 65.0°\n  Sentence: $GPRMC,080941.663,A,3749.8153,N,12228.2879,W,4.9,65.0,090725,0.0,E,N*21
\n\n[08:09:41] GPS Fix Data - Vessel 367000003 (FISHING_VESSEL_03)\n  Position: 37.795177, -122.374634\n  Sentence: $GPGGA,080941.663,3747.7106,N,12222.4780,W,1,8,1.2,0.0,M,19.6,M,,*71
\n\n[08:09:41] GPS Recommended Minimum - Vessel 367000003\n  Speed: 9.9 knots, Course: 6.0°\n  Sentence: $GPRMC,080941.663,A,3747.7106,N,12222.4780,W,9.9,6.0,090725,0.0,E,N*1D
\n\n[08:09:42] GPS Fix Data - Vessel 367000001 (CONTAINER_SHIP_01)\n  Position: 37.788113, -122.389603\n  Sentence: $GPGGA,080942.663,3747.2868,N,12223.3762,W,1,8,1.2,0.0,M,19.6,M,,*7C
\n\n[08:09:42] GPS Recommended Minimum - Vessel 367000001\n  Speed: 9.3 knots, Course: 158.0°\n  Sentence: $GPRMC,080942.663,A,3747.2868,N,12223.3762,W,9.3,158.0,090725,0.0,E,N*10
\n\n[08:09:42] GPS Fix Data - Vessel 367000002 (TANKER_02)\n  Position: 37.830268, -122.471441\n  Sentence: $GPGGA,080942.663,3749.8161,N,12228.2865,W,1,8,1.2,0.0,M,19.6,M,,*7A
\n\n[08:09:42] GPS Recommended Minimum - Vessel 367000002\n  Speed: 5.1 knots, Course: 65.0°\n  Sentence: $GPRMC,080942.663,A,3749.8161,N,12228.2865,W,5.1,65.0,090725,0.0,E,N*27
\n\n[08:09:42] GPS Fix Data - Vessel 367000003 (FISHING_VESSEL_03)\n  Position: 37.795226, -122.374631\n  Sentence: $GPGGA,080942.663,3747.7136,N,12222.4778,W,1,8,1.2,0.0,M,19.6,M,,*76
\n\n[08:09:42] GPS Recommended Minimum - Vessel 367000003\n  Speed: 10.0 knots, Course: 6.0°\n  Sentence: $GPRMC,080942.663,A,3747.7136,N,12222.4778,W,10.0,6.0,090725,0.0,E,N*2B
\n\n[08:09:43] GPS Fix Data - Vessel 367000001 (CONTAINER_SHIP_01)\n  Position: 37.788078, -122.389559\n  Sentence: $GPGGA,080943.663,3747.2847,N,12223.3735,W,1,8,1.2,0.0,M,19.6,M,,*72
\n\n[08:09:43] GPS Recommended Minimum - Vessel 367000001\n  Speed: 9.5 knots, Course: 158.0°\n  Sentence: $GPRMC,080943.663,A,3747.2847,N,12223.3735,W,9.5,158.0,090725,0.0,E,N*18
\n\n[08:09:43] GPS Fix Data - Vessel 367000002 (TANKER_02)\n  Position: 37.830284, -122.471390\n  Sentence: $GPGGA,080943.663,3749.8170,N,12228.2834,W,1,8,1.2,0.0,M,19.6,M,,*7F
\n\n[08:09:43] GPS Recommended Minimum - Vessel 367000002\n  Speed: 5.2 knots, Course: 65.0°\n  Sentence: $GPRMC,080943.663,A,3749.8170,N,12228.2834,W,5.2,65.0,090725,0.0,E,N*21
\n\n[08:09:43] GPS Fix Data - Vessel 367000003 (FISHING_VESSEL_03)\n  Position: 37.795279, -122.374601\n  Sentence: $GPGGA,080943.663,3747.7167,N,12222.4761,W,1,8,1.2,0.0,M,19.6,M,,*7B
\n\n[08:09:43] GPS Recommended Minimum - Vessel 367000003\n  Speed: 10.2 knots, Course: 6.0°\n  Sentence: $GPRMC,080943.663,A,3747.7167,N,12222.4761,W,10.2,6.0,090725,0.0,E,N*24
\n\n[08:09:44] GPS Fix Data - Vessel 367000001 (CONTAINER_SHIP_01)\n  Position: 37.788031, -122.389544\n  Sentence: $GPGGA,080944.663,3747.2819,N,12223.3726,W,1,8,1.2,0.0,M,19.6,M,,*7C
\n\n[08:09:44] GPS Recommended Minimum - Vessel 367000001\n  Speed: 9.5 knots, Course: 158.0°\n  Sentence: $GPRMC,080944.663,A,3747.2819,N,12223.3726,W,9.5,158.0,090725,0.0,E,N*16
\n\n[08:09:44] GPS Fix Data - Vessel 367000002 (TANKER_02)\n  Position: 37.830288, -122.471368\n  Sentence: $GPGGA,080944.663,3749.8173,N,12228.2821,W,1,8,1.2,0.0,M,19.6,M,,*7F
\n\n[08:09:44] GPS Recommended Minimum - Vessel 367000002\n  Speed: 5.2 knots, Course: 65.0°\n  Sentence: $GPRMC,080944.663,A,3749.8173,N,12228.2821,W,5.2,65.0,090725,0.0,E,N*21
\n\n[08:09:44] GPS Fix Data - Vessel 367000003 (FISHING_VESSEL_03)\n  Position: 37.795319, -122.374601\n  Sentence: $GPGGA,080944.663,3747.7192,N,12222.4760,W,1,8,1.2,0.0,M,19.6,M,,*77
\n\n[08:09:44] GPS Recommended Minimum - Vessel 367000003\n  Speed: 10.2 knots, Course: 6.0°\n  Sentence: $GPRMC,080944.663,A,3747.7192,N,12222.4760,W,10.2,6.0,090725,0.0,E,N*28
\n\n[08:09:45] GPS Fix Data - Vessel 367000001 (CONTAINER_SHIP_01)\n  Position: 37.788001, -122.389529\n  Sentence: $GPGGA,080945.663,3747.2801,N,12223.3717,W,1,8,1.2,0.0,M,19.6,M,,*76
\n\n[08:09:45] GPS Recommended Minimum - Vessel 367000001\n  Speed: 9.2 knots, Course: 158.0°\n  Sentence: $GPRMC,080945.663,A,3747.2801,N,12223.3717,W,9.2,158.0,090725,0.0,E,N*1B
\n\n[08:09:45] GPS Fix Data - Vessel 367000002 (TANKER_02)\n  Position: 37.830307, -122.471348\n  Sentence: $GPGGA,080945.663,3749.8184,N,12228.2809,W,1,8,1.2,0.0,M,19.6,M,,*7C
\n\n[08:09:45] GPS Recommended Minimum - Vessel 367000002\n  Speed: 4.9 knots, Course: 65.0°\n  Sentence: $GPRMC,080945.663,A,3749.8184,N,12228.2809,W,4.9,65.0,090725,0.0,E,N*28
\n\n[08:09:45] GPS Fix Data - Vessel 367000003 (FISHING_VESSEL_03)\n  Position: 37.795374, -122.374600\n  Sentence: $GPGGA,080945.663,3747.7224,N,12222.4760,W,1,8,1.2,0.0,M,19.6,M,,*78
\n\n[08:09:45] GPS Recommended Minimum - Vessel 367000003\n  Speed: 9.9 knots, Course: 6.0°\n  Sentence: $GPRMC,080945.663,A,3747.7224,N,12222.4760,W,9.9,6.0,090725,0.0,E,N*14
\n\n[08:09:46] GPS Fix Data - Vessel 367000001 (CONTAINER_SHIP_01)\n  Position: 37.787969, -122.389516\n  Sentence: $GPGGA,080946.663,3747.2781,N,12223.3710,W,1,8,1.2,0.0,M,19.6,M,,*75
\n\n[08:09:46] GPS Recommended Minimum - Vessel 367000001\n  Speed: 9.3 knots, Course: 158.0°\n  Sentence: $GPRMC,080946.663,A,3747.2781,N,12223.3710,W,9.3,158.0,090725,0.0,E,N*19
\n\n[08:09:46] GPS Fix Data - Vessel 367000002 (TANKER_02)\n  Position: 37.830324, -122.471329\n  Sentence: $GPGGA,080946.663,3749.8195,N,12228.2797,W,1,8,1.2,0.0,M,19.6,M,,*77
\n\n[08:09:46] GPS Recommended Minimum - Vessel 367000002\n  Speed: 5.0 knots, Course: 65.0°\n  Sentence: $GPRMC,080946.663,A,3749.8195,N,12228.2797,W,5.0,65.0,090725,0.0,E,N*2B
\n\n[08:09:46] GPS Fix Data - Vessel 367000003 (FISHING_VESSEL_03)\n  Position: 37.795428, -122.374601\n  Sentence: $GPGGA,080946.663,3747.7257,N,12222.4761,W,1,8,1.2,0.0,M,19.6,M,,*7E
\n\n[08:09:46] GPS Recommended Minimum - Vessel 367000003\n  Speed: 10.0 knots, Course: 6.0°\n  Sentence: $GPRMC,080946.663,A,3747.7257,N,12222.4761,W,10.0,6.0,090725,0.0,E,N*23
\n\n[08:09:47] GPS Fix Data - Vessel 367000001 (CONTAINER_SHIP_01)\n  Position: 37.787911, -122.389506\n  Sentence: $GPGGA,080947.663,3747.2746,N,12223.3704,W,1,8,1.2,0.0,M,19.6,M,,*7A
\n\n[08:09:47] GPS Recommended Minimum - Vessel 367000001\n  Speed: 9.3 knots, Course: 158.0°\n  Sentence: $GPRMC,080947.663,A,3747.2746,N,12223.3704,W,9.3,158.0,090725,0.0,E,N*16
\n\n[08:09:47] GPS Fix Data - Vessel 367000002 (TANKER_02)\n  Position: 37.830316, -122.471313\n  Sentence: $GPGGA,080947.663,3749.8189,N,12228.2788,W,1,8,1.2,0.0,M,19.6,M,,*75
\n\n[08:09:47] GPS Recommended Minimum - Vessel 367000002\n  Speed: 5.0 knots, Course: 65.0°\n  Sentence: $GPRMC,080947.663,A,3749.8189,N,12228.2788,W,5.0,65.0,090725,0.0,E,N*29
\n\n[08:09:47] GPS Fix Data - Vessel 367000003 (FISHING_VESSEL_03)\n  Position: 37.795455, -122.374606\n  Sentence: $GPGGA,080947.663,3747.7273,N,12222.4764,W,1,8,1.2,0.0,M,19.6,M,,*7C
\n\n[08:09:47] GPS Recommended Minimum - Vessel 367000003\n  Speed: 10.0 knots, Course: 6.0°\n  Sentence: $GPRMC,080947.663,A,3747.7273,N,12222.4764,W,10.0,6.0,090725,0.0,E,N*21
\n\n[08:09:48] GPS Fix Data - Vessel 367000001 (CONTAINER_SHIP_01)\n  Position: 37.787875, -122.389474\n  Sentence: $GPGGA,080948.663,3747.2725,N,12223.3685,W,1,8,1.2,0.0,M,19.6,M,,*78
\n\n[08:09:48] GPS Recommended Minimum - Vessel 367000001\n  Speed: 9.2 knots, Course: 158.0°\n  Sentence: $GPRMC,080948.663,A,3747.2725,N,12223.3685,W,9.2,158.0,090725,0.0,E,N*15
\n\n[08:09:48] GPS Fix Data - Vessel 367000002 (TANKER_02)\n  Position: 37.830330, -122.471275\n  Sentence: $GPGGA,080948.663,3749.8198,N,12228.2765,W,1,8,1.2,0.0,M,19.6,M,,*79
\n\n[08:09:48] GPS Recommended Minimum - Vessel 367000002\n  Speed: 4.9 knots, Course: 65.0°\n  Sentence: $GPRMC,080948.663,A,3749.8198,N,12228.2765,W,4.9,65.0,090725,0.0,E,N*2D
\n\n[08:09:48] GPS Fix Data - Vessel 367000003 (FISHING_VESSEL_03)\n  Position: 37.795505, -122.374588\n  Sentence: $GPGGA,080948.663,3747.7303,N,12222.4753,W,1,8,1.2,0.0,M,19.6,M,,*71
\n\n[08:09:48] GPS Recommended Minimum - Vessel 367000003\n  Speed: 9.9 knots, Course: 6.0°\n  Sentence: $GPRMC,080948.663,A,3747.7303,N,12222.4753,W,9.9,6.0,090725,0.0,E,N*1D
\n\n[08:09:49] GPS Fix Data - Vessel 367000001 (CONTAINER_SHIP_01)\n  Position: 37.787838, -122.389452\n  Sentence: $GPGGA,080949.663,3747.2703,N,12223.3671,W,1,8,1.2,0.0,M,19.6,M,,*76
\n\n[08:09:49] GPS Recommended Minimum - Vessel 367000001\n  Speed: 9.3 knots, Course: 158.0°\n  Sentence: $GPRMC,080949.663,A,3747.2703,N,12223.3671,W,9.3,158.0,090725,0.0,E,N*1A
\n\n[08:09:49] GPS Fix Data - Vessel 367000002 (TANKER_02)\n  Position: 37.830342, -122.471247\n  Sentence: $GPGGA,080949.663,3749.8205,N,12228.2748,W,1,8,1.2,0.0,M,19.6,M,,*70
\n\n[08:09:49] GPS Recommended Minimum - Vessel 367000002\n  Speed: 5.0 knots, Course: 65.0°\n  Sentence: $GPRMC,080949.663,A,3749.8205,N,12228.2748,W,5.0,65.0,090725,0.0,E,N*2C
\n\n[08:09:49] GPS Fix Data - Vessel 367000003 (FISHING_VESSEL_03)\n  Position: 37.795554, -122.374580\n  Sentence: $GPGGA,080949.663,3747.7332,N,12222.4748,W,1,8,1.2,0.0,M,19.6,M,,*78
\n\n[08:09:49] GPS Recommended Minimum - Vessel 367000003\n  Speed: 10.0 knots, Course: 6.0°\n  Sentence: $GPRMC,080949.663,A,3747.7332,N,12222.4748,W,10.0,6.0,090725,0.0,E,N*25
\n\n[08:09:50] GPS Fix Data - Vessel 367000001 (CONTAINER_SHIP_01)\n  Position: 37.787806, -122.389428\n  Sentence: $GPGGA,080950.663,3747.2684,N,12223.3657,W,1,8,1.2,0.0,M,19.6,M,,*74
\n\n[08:09:50] GPS Recommended Minimum - Vessel 367000001\n  Speed: 9.6 knots, Course: 158.0°\n  Sentence: $GPRMC,080950.663,A,3747.2684,N,12223.3657,W,9.6,158.0,090725,0.0,E,N*1D
\n\n[08:09:50] GPS Fix Data - Vessel 367000002 (TANKER_02)\n  Position: 37.830361, -122.471216\n  Sentence: $GPGGA,080950.663,3749.8217,N,12228.2730,W,1,8,1.2,0.0,M,19.6,M,,*74
\n\n[08:09:50] GPS Recommended Minimum - Vessel 367000002\n  Speed: 5.3 knots, Course: 65.0°\n  Sentence: $GPRMC,080950.663,A,3749.8217,N,12228.2730,W,5.3,65.0,090725,0.0,E,N*2B
\n\n[08:09:50] GPS Fix Data - Vessel 367000003 (FISHING_VESSEL_03)\n  Position: 37.795610, -122.374571\n  Sentence: $GPGGA,080950.663,3747.7366,N,12222.4743,W,1,8,1.2,0.0,M,19.6,M,,*7A
\n\n[08:09:50] GPS Recommended Minimum - Vessel 367000003\n  Speed: 10.3 knots, Course: 6.0°\n  Sentence: $GPRMC,080950.663,A,3747.7366,N,12222.4743,W,10.3,6.0,090725,0.0,E,N*24
\n\n[08:09:50] AIS Type 1 - Vessel 367000001 (CONTAINER_SHIP_01)\n  Position Report Class A\n  Position: 37.787806, -122.389428\n  Speed: 9.6 knots, Course: 158.0°\n  Heading: 158°\n  Sentence: !AIVDM,1,1,,A,15Mwqh@01PG?gf>EWm;6;4uT0000,0*0B\n  Input Data: {
    "message_type": 1,
    "mmsi": 367000001,
    "nav_status": 0,
    "rot": 0,
    "sog": 9.554399016866729,
    "position_accuracy": 0,
    "longitude": -122.38942836622525,
    "latitude": 37.78780589060428,
    "cog": 158,
    "heading": 158,
    "timestamp": 50,
    "raim": 0,
    "radio_status": 0
}\n\n[08:09:50] AIS Type 2 - Vessel 367000001 (CONTAINER_SHIP_01)\n  Position Report Class A\n  Position: 37.787806, -122.389428\n  Speed: 9.6 knots, Course: 158.0°\n  Heading: 158°\n  Sentence: !AIVDM,1,1,,A,25Mwqh@01PG?gf>EWm;6;4uT0000,0*08\n  Input Data: {
    "message_type": 2,
    "mmsi": 367000001,
    "nav_status": 0,
    "rot": 0,
    "sog": 9.554399016866729,
    "position_accuracy": 0,
    "longitude": -122.38942836622525,
    "latitude": 37.78780589060428,
    "cog": 158,
    "heading": 158,
    "timestamp": 50,
    "raim": 0,
    "radio_status": 0
}\n\n[08:09:50] AIS Type 3 - Vessel 367000001 (CONTAINER_SHIP_01)\n  Position Report Class A\n  Position: 37.787806, -122.389428\n  Speed: 9.6 knots, Course: 158.0°\n  Heading: 158°\n  Sentence: !AIVDM,1,1,,A,35Mwqh@01PG?gf>EWm;6;4uT0000,0*09\n  Input Data: {
    "message_type": 3,
    "mmsi": 367000001,
    "nav_status": 0,
    "rot": 0,
    "sog": 9.554399016866729,
    "position_accuracy": 0,
    "longitude": -122.38942836622525,
    "latitude": 37.78780589060428,
    "cog": 158,
    "heading": 158,
    "timestamp": 50,
    "raim": 0,
    "radio_status": 0
