Timestamp,Message_Type,Vessel_MMSI,AIS_Message_Type,Latitude,Longitude,Speed_Knots,Course_Degrees,Sentence
2025-07-09T08:09:20.663346,AIS,367000001,1,37.789019740258986,-122.39005928572796,9.308632728260422,158,"!AIVDM,1,1,,A,15Mwqh@P1MG?gRHEWp16;4t`0000,0*16"
2025-07-09T08:09:20.663346,AIS,367000001,2,37.789019740258986,-122.39005928572796,9.308632728260422,158,"!AIVDM,1,1,,A,25Mwqh@P1MG?gRHEWp16;4t`0000,0*15"
2025-07-09T08:09:20.663346,AIS,367000001,3,37.789019740258986,-122.39005928572796,9.308632728260422,158,"!AIVDM,1,1,,A,35Mwqh@P1MG?gRHEWp16;4t`0000,0*14"
2025-07-09T08:09:20.663346,AIS,367000001,5,,,,,"!AIVDM,2,1,1,A,55Mwqh@00003BG?A116>vsB6VrG;w>RW3u1400168@V6540HtOt;te?l,0*41"
2025-07-09T08:09:20.663346,AIS,367000001,5,,,,,"!AIVDM,2,2,1,A,@00000000000008,2*5D"
2025-07-09T08:09:20.663346,AIS,367000001,18,37.789019740258986,-122.39005928572796,9.308632728260422,158,"!AIVDM,1,1,,A,B5Mwqh@0GEkspV5Iv0ARi?:40000,0*4F"
2025-07-09T08:09:20.663346,AIS,367000001,19,37.789019740258986,-122.39005928572796,9.308632728260422,158,"!AIVDM,1,1,,A,C5Mwqh@0GEkspV5Iv0ARi?:17OMa3CM;UwWACQvPR000S48C32RP,0*64"
2025-07-09T08:09:20.663346,AIS,367000001,24,,,,,"!AIVDM,1,1,,A,H5MwqhB>vsB6VrG;w>RW3u140000,0*22"
2025-07-09T08:09:20.663346,AIS,367000001,24,,,,,"!AIVDM,1,1,,A,H5MwqhE60000000=9Lu444B49QQ@0,2*0F"
2025-07-09T08:09:20.663346,AIS,367000002,1,37.83007430584398,-122.47203743842857,5.015302701887202,65,"!AIVDM,1,1,,A,15MwqhPP0jG?GQDEaH?BRR2`0000,0*32"
2025-07-09T08:09:20.663346,AIS,367000002,2,37.83007430584398,-122.47203743842857,5.015302701887202,65,"!AIVDM,1,1,,A,25MwqhPP0jG?GQDEaH?BRR2`0000,0*31"
2025-07-09T08:09:20.663346,AIS,367000002,3,37.83007430584398,-122.47203743842857,5.015302701887202,65,"!AIVDM,1,1,,A,35MwqhPP0jG?GQDEaH?BRR2`0000,0*30"
2025-07-09T08:09:20.663346,AIS,367000002,5,,,,,"!AIVDM,2,1,2,A,55MwqhP00003BG?A11;B6rfG;u1800000000001@DHM:940HtSt;te?m,0*23"
2025-07-09T08:09:20.663346,AIS,367000002,5,,,,,"!AIVDM,2,2,2,A,000000000000008,2*2E"
2025-07-09T08:09:20.663346,AIS,367000002,18,37.83007430584398,-122.47203743842857,5.015302701887202,65,"!AIVDM,1,1,,A,B5MwqhP0<UkmpE5JF3l``Pb40000,0*28"
2025-07-09T08:09:20.663346,AIS,367000002,19,37.83007430584398,-122.47203743842857,5.015302701887202,65,"!AIVDM,1,1,,A,C5MwqhP0<UkmpE5JF3l``Pb1a3MG;UvPT00000000000`:<>U4RP,0*63"
2025-07-09T08:09:20.663346,AIS,367000002,24,,,,,"!AIVDM,1,1,,A,H5MwqhSB6rfG;u18000000000000,0*4B"
2025-07-09T08:09:20.663346,AIS,367000002,24,,,,,"!AIVDM,1,1,,A,H5MwqhU@0000000=9Lu444U67BR@0,2*62"
2025-07-09T08:09:20.663346,AIS,367000003,1,37.794231623279316,-122.3747713403446,10.011900021416642,6,"!AIVDM,1,1,,A,15MwqhhP1TG?l12E`4>h?0<`0000,0*5F"
2025-07-09T08:09:20.663346,AIS,367000003,2,37.794231623279316,-122.3747713403446,10.011900021416642,6,"!AIVDM,1,1,,A,25MwqhhP1TG?l12E`4>h?0<`0000,0*5C"
2025-07-09T08:09:20.663346,AIS,367000003,3,37.794231623279316,-122.3747713403446,10.011900021416642,6,"!AIVDM,1,1,,A,35MwqhhP1TG?l12E`4>h?0<`0000,0*5D"
2025-07-09T08:09:20.663346,AIS,367000003,5,,,,,"!AIVDM,2,1,3,A,55Mwqhh00003BG?A11>JW>RVrOwJG?>Fku1<000ND0=D640Ht?t;te?m,0*51"
2025-07-09T08:09:20.663346,AIS,367000003,5,,,,,"!AIVDM,2,2,3,A,@00000000000008,2*5F"
2025-07-09T08:09:20.663346,AIS,367000003,18,37.794231623279316,-122.3747713403446,10.011900021416642,6,"!AIVDM,1,1,,A,B5Mwqhh0I5ku0@UJ13d3h3:40000,0*27"
2025-07-09T08:09:20.663346,AIS,367000003,19,37.794231623279316,-122.3747713403446,10.011900021416642,6,"!AIVDM,1,1,,A,C5Mwqhh0I5ku0@UJ13d3h3:1=CWACM?we;WW;IvPV000?:06b32P,0*51"
2025-07-09T08:09:20.663346,AIS,367000003,24,,,,,"!AIVDM,1,1,,A,H5MwqhjJW>RVrOwJG?>Fku1<0000,0*26"
2025-07-09T08:09:20.663346,AIS,367000003,24,,,,,"!AIVDM,1,1,,A,H5MwqhlN0000000=9Lu444m03E1P0,2*1B"
2025-07-09T08:09:21.663346,GPS,367000001,,,,,,"$GPGGA,080921.663,3747.3387,N,12223.4032,W,1,8,1.2,0.0,M,19.6,M,,*77
"
2025-07-09T08:09:21.663346,GPS,367000001,,,,,,"$GPRMC,080921.663,A,3747.3387,N,12223.4032,W,9.5,158.0,090725,0.0,E,N*1D
"
2025-07-09T08:09:21.663346,GPS,367000002,,,,,,"$GPGGA,080921.663,3749.8050,N,12228.3215,W,1,8,1.2,0.0,M,19.6,M,,*70
"
2025-07-09T08:09:21.663346,GPS,367000002,,,,,,"$GPRMC,080921.663,A,3749.8050,N,12228.3215,W,5.2,65.0,090725,0.0,E,N*2E
"
2025-07-09T08:09:21.663346,GPS,367000003,,,,,,"$GPGGA,080921.663,3747.6566,N,12222.4868,W,1,8,1.2,0.0,M,19.6,M,,*7D
"
2025-07-09T08:09:21.663346,GPS,367000003,,,,,,"$GPRMC,080921.663,A,3747.6566,N,12222.4868,W,10.2,6.0,090725,0.0,E,N*22
"
2025-07-09T08:09:22.663346,GPS,367000001,,,,,,"$GPGGA,080922.663,3747.3361,N,12223.4021,W,1,8,1.2,0.0,M,19.6,M,,*7E
"
2025-07-09T08:09:22.663346,GPS,367000001,,,,,,"$GPRMC,080922.663,A,3747.3361,N,12223.4021,W,9.4,158.0,090725,0.0,E,N*15
"
2025-07-09T08:09:22.663346,GPS,367000002,,,,,,"$GPGGA,080922.663,3749.8054,N,12228.3200,W,1,8,1.2,0.0,M,19.6,M,,*73
"
2025-07-09T08:09:22.663346,GPS,367000002,,,,,,"$GPRMC,080922.663,A,3749.8054,N,12228.3200,W,5.1,65.0,090725,0.0,E,N*2E
"
2025-07-09T08:09:22.663346,GPS,367000003,,,,,,"$GPGGA,080922.663,3747.6593,N,12222.4866,W,1,8,1.2,0.0,M,19.6,M,,*7A
"
2025-07-09T08:09:22.663346,GPS,367000003,,,,,,"$GPRMC,080922.663,A,3747.6593,N,12222.4866,W,10.1,6.0,090725,0.0,E,N*26
"
2025-07-09T08:09:23.663346,GPS,367000001,,,,,,"$GPGGA,080923.663,3747.3338,N,12223.4002,W,1,8,1.2,0.0,M,19.6,M,,*72
"
2025-07-09T08:09:23.663346,GPS,367000001,,,,,,"$GPRMC,080923.663,A,3747.3338,N,12223.4002,W,9.4,158.0,090725,0.0,E,N*19
"
2025-07-09T08:09:23.663346,GPS,367000002,,,,,,"$GPGGA,080923.663,3749.8062,N,12228.3177,W,1,8,1.2,0.0,M,19.6,M,,*74
"
2025-07-09T08:09:23.663346,GPS,367000002,,,,,,"$GPRMC,080923.663,A,3749.8062,N,12228.3177,W,5.1,65.0,090725,0.0,E,N*29
"
2025-07-09T08:09:23.663346,GPS,367000003,,,,,,"$GPGGA,080923.663,3747.6622,N,12222.4855,W,1,8,1.2,0.0,M,19.6,M,,*72
"
2025-07-09T08:09:23.663346,GPS,367000003,,,,,,"$GPRMC,080923.663,A,3747.6622,N,12222.4855,W,10.1,6.0,090725,0.0,E,N*2E
"
2025-07-09T08:09:24.663346,GPS,367000001,,,,,,"$GPGGA,080924.663,3747.3314,N,12223.3994,W,1,8,1.2,0.0,M,19.6,M,,*7A
"
2025-07-09T08:09:24.663346,GPS,367000001,,,,,,"$GPRMC,080924.663,A,3747.3314,N,12223.3994,W,9.5,158.0,090725,0.0,E,N*10
"
2025-07-09T08:09:24.663346,GPS,367000002,,,,,,"$GPGGA,080924.663,3749.8068,N,12228.3165,W,1,8,1.2,0.0,M,19.6,M,,*7A
"
2025-07-09T08:09:24.663346,GPS,367000002,,,,,,"$GPRMC,080924.663,A,3749.8068,N,12228.3165,W,5.2,65.0,090725,0.0,E,N*24
"
2025-07-09T08:09:24.663346,GPS,367000003,,,,,,"$GPGGA,080924.663,3747.6651,N,12222.4856,W,1,8,1.2,0.0,M,19.6,M,,*72
"
2025-07-09T08:09:24.663346,GPS,367000003,,,,,,"$GPRMC,080924.663,A,3747.6651,N,12222.4856,W,10.2,6.0,090725,0.0,E,N*2D
"
2025-07-09T08:09:25.663346,GPS,367000001,,,,,,"$GPGGA,080925.663,3747.3292,N,12223.3974,W,1,8,1.2,0.0,M,19.6,M,,*7A
"
2025-07-09T08:09:25.663346,GPS,367000001,,,,,,"$GPRMC,080925.663,A,3747.3292,N,12223.3974,W,9.1,158.0,090725,0.0,E,N*14
"
2025-07-09T08:09:25.663346,GPS,367000002,,,,,,"$GPGGA,080925.663,3749.8076,N,12228.3141,W,1,8,1.2,0.0,M,19.6,M,,*72
"
2025-07-09T08:09:25.663346,GPS,367000002,,,,,,"$GPRMC,080925.663,A,3749.8076,N,12228.3141,W,4.8,65.0,090725,0.0,E,N*27
"
2025-07-09T08:09:25.663346,GPS,367000003,,,,,,"$GPGGA,080925.663,3747.6679,N,12222.4844,W,1,8,1.2,0.0,M,19.6,M,,*7A
"
2025-07-09T08:09:25.663346,GPS,367000003,,,,,,"$GPRMC,080925.663,A,3747.6679,N,12222.4844,W,9.8,6.0,090725,0.0,E,N*17
"
2025-07-09T08:09:26.663346,GPS,367000001,,,,,,"$GPGGA,080926.663,3747.3268,N,12223.3958,W,1,8,1.2,0.0,M,19.6,M,,*72
"
2025-07-09T08:09:26.663346,GPS,367000001,,,,,,"$GPRMC,080926.663,A,3747.3268,N,12223.3958,W,9.3,158.0,090725,0.0,E,N*1E
"
2025-07-09T08:09:26.663346,GPS,367000002,,,,,,"$GPGGA,080926.663,3749.8081,N,12228.3122,W,1,8,1.2,0.0,M,19.6,M,,*7C
"
2025-07-09T08:09:26.663346,GPS,367000002,,,,,,"$GPRMC,080926.663,A,3749.8081,N,12228.3122,W,5.1,65.0,090725,0.0,E,N*21
"
2025-07-09T08:09:26.663346,GPS,367000003,,,,,,"$GPGGA,080926.663,3747.6706,N,12222.4837,W,1,8,1.2,0.0,M,19.6,M,,*74
"
2025-07-09T08:09:26.663346,GPS,367000003,,,,,,"$GPRMC,080926.663,A,3747.6706,N,12222.4837,W,10.0,6.0,090725,0.0,E,N*29
"
2025-07-09T08:09:27.663346,GPS,367000001,,,,,,"$GPGGA,080927.663,3747.3243,N,12223.3943,W,1,8,1.2,0.0,M,19.6,M,,*70
"
2025-07-09T08:09:27.663346,GPS,367000001,,,,,,"$GPRMC,080927.663,A,3747.3243,N,12223.3943,W,9.0,158.0,090725,0.0,E,N*1F
"
2025-07-09T08:09:27.663346,GPS,367000002,,,,,,"$GPGGA,080927.663,3749.8085,N,12228.3104,W,1,8,1.2,0.0,M,19.6,M,,*7D
"
2025-07-09T08:09:27.663346,GPS,367000002,,,,,,"$GPRMC,080927.663,A,3749.8085,N,12228.3104,W,4.8,65.0,090725,0.0,E,N*28
"
2025-07-09T08:09:27.663346,GPS,367000003,,,,,,"$GPGGA,080927.663,3747.6731,N,12222.4831,W,1,8,1.2,0.0,M,19.6,M,,*77
"
2025-07-09T08:09:27.663346,GPS,367000003,,,,,,"$GPRMC,080927.663,A,3747.6731,N,12222.4831,W,9.8,6.0,090725,0.0,E,N*1A
"
2025-07-09T08:09:28.663346,GPS,367000001,,,,,,"$GPGGA,080928.663,3747.3217,N,12223.3929,W,1,8,1.2,0.0,M,19.6,M,,*72
"
2025-07-09T08:09:28.663346,GPS,367000001,,,,,,"$GPRMC,080928.663,A,3747.3217,N,12223.3929,W,9.5,158.0,090725,0.0,E,N*18
"
2025-07-09T08:09:28.663346,GPS,367000002,,,,,,"$GPGGA,080928.663,3749.8089,N,12228.3085,W,1,8,1.2,0.0,M,19.6,M,,*76
"
2025-07-09T08:09:28.663346,GPS,367000002,,,,,,"$GPRMC,080928.663,A,3749.8089,N,12228.3085,W,5.2,65.0,090725,0.0,E,N*28
"
2025-07-09T08:09:28.663346,GPS,367000003,,,,,,"$GPGGA,080928.663,3747.6758,N,12222.4825,W,1,8,1.2,0.0,M,19.6,M,,*72
"
2025-07-09T08:09:28.663346,GPS,367000003,,,,,,"$GPRMC,080928.663,A,3747.6758,N,12222.4825,W,10.2,6.0,090725,0.0,E,N*2D
"
2025-07-09T08:09:29.663346,GPS,367000001,,,,,,"$GPGGA,080929.663,3747.3197,N,12223.3923,W,1,8,1.2,0.0,M,19.6,M,,*72
"
2025-07-09T08:09:29.663346,GPS,367000001,,,,,,"$GPRMC,080929.663,A,3747.3197,N,12223.3923,W,9.4,158.0,090725,0.0,E,N*19
"
2025-07-09T08:09:29.663346,GPS,367000002,,,,,,"$GPGGA,080929.663,3749.8100,N,12228.3076,W,1,8,1.2,0.0,M,19.6,M,,*7B
"
2025-07-09T08:09:29.663346,GPS,367000002,,,,,,"$GPRMC,080929.663,A,3749.8100,N,12228.3076,W,5.1,65.0,090725,0.0,E,N*26
"
2025-07-09T08:09:29.663346,GPS,367000003,,,,,,"$GPGGA,080929.663,3747.6791,N,12222.4828,W,1,8,1.2,0.0,M,19.6,M,,*7B
"
2025-07-09T08:09:29.663346,GPS,367000003,,,,,,"$GPRMC,080929.663,A,3747.6791,N,12222.4828,W,10.1,6.0,090725,0.0,E,N*27
"
2025-07-09T08:09:30.663346,GPS,367000001,,,,,,"$GPGGA,080930.663,3747.3164,N,12223.3926,W,1,8,1.2,0.0,M,19.6,M,,*73
"
2025-07-09T08:09:30.663346,GPS,367000001,,,,,,"$GPRMC,080930.663,A,3747.3164,N,12223.3926,W,9.5,158.0,090725,0.0,E,N*19
"
2025-07-09T08:09:30.663346,GPS,367000002,,,,,,"$GPGGA,080930.663,3749.8097,N,12228.3075,W,1,8,1.2,0.0,M,19.6,M,,*7F
"
2025-07-09T08:09:30.663346,GPS,367000002,,,,,,"$GPRMC,080930.663,A,3749.8097,N,12228.3075,W,5.2,65.0,090725,0.0,E,N*21
"
2025-07-09T08:09:30.663346,GPS,367000003,,,,,,"$GPGGA,080930.663,3747.6810,N,12222.4840,W,1,8,1.2,0.0,M,19.6,M,,*7B
"
2025-07-09T08:09:30.663346,GPS,367000003,,,,,,"$GPRMC,080930.663,A,3747.6810,N,12222.4840,W,10.2,6.0,090725,0.0,E,N*24
"
2025-07-09T08:09:30.663346,AIS,367000001,1,37.78860630879989,-122.38987716473754,9.451100931693084,158,"!AIVDM,1,1,,A,15Mwqh@01OG?gUlEWo36;4tt0000,0*5E"
2025-07-09T08:09:30.663346,AIS,367000001,2,37.78860630879989,-122.38987716473754,9.451100931693084,158,"!AIVDM,1,1,,A,25Mwqh@01OG?gUlEWo36;4tt0000,0*5D"
2025-07-09T08:09:30.663346,AIS,367000001,3,37.78860630879989,-122.38987716473754,9.451100931693084,158,"!AIVDM,1,1,,A,35Mwqh@01OG?gUlEWo36;4tt0000,0*5C"
2025-07-09T08:09:30.663346,AIS,367000002,1,37.83016137723259,-122.47179164574419,5.1577709053198655,65,"!AIVDM,1,1,,A,15MwqhP00lG?GUrEaHLBRR2t0000,0*01"
2025-07-09T08:09:30.663346,AIS,367000002,2,37.83016137723259,-122.47179164574419,5.1577709053198655,65,"!AIVDM,1,1,,A,25MwqhP00lG?GUrEaHLBRR2t0000,0*02"
2025-07-09T08:09:30.663346,AIS,367000002,3,37.83016137723259,-122.47179164574419,5.1577709053198655,65,"!AIVDM,1,1,,A,35MwqhP00lG?GUrEaHLBRR2t0000,0*03"
2025-07-09T08:09:30.663346,AIS,367000003,1,37.79468262569174,-122.37473288559384,10.154368224849303,6,"!AIVDM,1,1,,A,15Mwqhh01VG?l1hE`5BP?0<t0000,0*36"
2025-07-09T08:09:30.663346,AIS,367000003,2,37.79468262569174,-122.37473288559384,10.154368224849303,6,"!AIVDM,1,1,,A,25Mwqhh01VG?l1hE`5BP?0<t0000,0*35"
2025-07-09T08:09:30.663346,AIS,367000003,3,37.79468262569174,-122.37473288559384,10.154368224849303,6,"!AIVDM,1,1,,A,35Mwqhh01VG?l1hE`5BP?0<t0000,0*34"
2025-07-09T08:09:31.663346,GPS,367000001,,,,,,"$GPGGA,080931.663,3747.3135,N,12223.3909,W,1,8,1.2,0.0,M,19.6,M,,*7B
"
2025-07-09T08:09:31.663346,GPS,367000001,,,,,,"$GPRMC,080931.663,A,3747.3135,N,12223.3909,W,9.2,158.0,090725,0.0,E,N*16
"
2025-07-09T08:09:31.663346,GPS,367000002,,,,,,"$GPGGA,080931.663,3749.8097,N,12228.3054,W,1,8,1.2,0.0,M,19.6,M,,*7D
"
2025-07-09T08:09:31.663346,GPS,367000002,,,,,,"$GPRMC,080931.663,A,3749.8097,N,12228.3054,W,4.9,65.0,090725,0.0,E,N*29
"
2025-07-09T08:09:31.663346,GPS,367000003,,,,,,"$GPGGA,080931.663,3747.6831,N,12222.4831,W,1,8,1.2,0.0,M,19.6,M,,*7F
"
2025-07-09T08:09:31.663346,GPS,367000003,,,,,,"$GPRMC,080931.663,A,3747.6831,N,12222.4831,W,9.9,6.0,090725,0.0,E,N*13
"
2025-07-09T08:09:32.663346,GPS,367000001,,,,,,"$GPGGA,080932.663,3747.3103,N,12223.3891,W,1,8,1.2,0.0,M,19.6,M,,*7D
"
2025-07-09T08:09:32.663346,GPS,367000001,,,,,,"$GPRMC,080932.663,A,3747.3103,N,12223.3891,W,9.5,158.0,090725,0.0,E,N*17
"
2025-07-09T08:09:32.663346,GPS,367000002,,,,,,"$GPGGA,080932.663,3749.8096,N,12228.3032,W,1,8,1.2,0.0,M,19.6,M,,*7F
"
2025-07-09T08:09:32.663346,GPS,367000002,,,,,,"$GPRMC,080932.663,A,3749.8096,N,12228.3032,W,5.2,65.0,090725,0.0,E,N*21
"
2025-07-09T08:09:32.663346,GPS,367000003,,,,,,"$GPGGA,080932.663,3747.6852,N,12222.4822,W,1,8,1.2,0.0,M,19.6,M,,*7B
"
2025-07-09T08:09:32.663346,GPS,367000003,,,,,,"$GPRMC,080932.663,A,3747.6852,N,12222.4822,W,10.2,6.0,090725,0.0,E,N*24
"
2025-07-09T08:09:33.663346,GPS,367000001,,,,,,"$GPGGA,080933.663,3747.3079,N,12223.3881,W,1,8,1.2,0.0,M,19.6,M,,*71
"
2025-07-09T08:09:33.663346,GPS,367000001,,,,,,"$GPRMC,080933.663,A,3747.3079,N,12223.3881,W,9.1,158.0,090725,0.0,E,N*1F
"
2025-07-09T08:09:33.663346,GPS,367000002,,,,,,"$GPGGA,080933.663,3749.8101,N,12228.3019,W,1,8,1.2,0.0,M,19.6,M,,*78
"
2025-07-09T08:09:33.663346,GPS,367000002,,,,,,"$GPRMC,080933.663,A,3749.8101,N,12228.3019,W,4.8,65.0,090725,0.0,E,N*2D
"
2025-07-09T08:09:33.663346,GPS,367000003,,,,,,"$GPGGA,080933.663,3747.6879,N,12222.4820,W,1,8,1.2,0.0,M,19.6,M,,*71
"
2025-07-09T08:09:33.663346,GPS,367000003,,,,,,"$GPRMC,080933.663,A,3747.6879,N,12222.4820,W,9.8,6.0,090725,0.0,E,N*1C
"
2025-07-09T08:09:34.663346,GPS,367000001,,,,,,"$GPGGA,080934.663,3747.3060,N,12223.3865,W,1,8,1.2,0.0,M,19.6,M,,*74
"
2025-07-09T08:09:34.663346,GPS,367000001,,,,,,"$GPRMC,080934.663,A,3747.3060,N,12223.3865,W,9.4,158.0,090725,0.0,E,N*1F
"
2025-07-09T08:09:34.663346,GPS,367000002,,,,,,"$GPGGA,080934.663,3749.8112,N,12228.2999,W,1,8,1.2,0.0,M,19.6,M,,*7D
"
2025-07-09T08:09:34.663346,GPS,367000002,,,,,,"$GPRMC,080934.663,A,3749.8112,N,12228.2999,W,5.1,65.0,090725,0.0,E,N*20
"
2025-07-09T08:09:34.663346,GPS,367000003,,,,,,"$GPGGA,080934.663,3747.6912,N,12222.4813,W,1,8,1.2,0.0,M,19.6,M,,*7A
"
2025-07-09T08:09:34.663346,GPS,367000003,,,,,,"$GPRMC,080934.663,A,3747.6912,N,12222.4813,W,10.1,6.0,090725,0.0,E,N*26
"
2025-07-09T08:09:35.663346,GPS,367000001,,,,,,"$GPGGA,080935.663,3747.3039,N,12223.3850,W,1,8,1.2,0.0,M,19.6,M,,*7F
"
2025-07-09T08:09:35.663346,GPS,367000001,,,,,,"$GPRMC,080935.663,A,3747.3039,N,12223.3850,W,9.4,158.0,090725,0.0,E,N*14
"
2025-07-09T08:09:35.663346,GPS,367000002,,,,,,"$GPGGA,080935.663,3749.8122,N,12228.2980,W,1,8,1.2,0.0,M,19.6,M,,*77
"
2025-07-09T08:09:35.663346,GPS,367000002,,,,,,"$GPRMC,080935.663,A,3749.8122,N,12228.2980,W,5.1,65.0,090725,0.0,E,N*2A
"
2025-07-09T08:09:35.663346,GPS,367000003,,,,,,"$GPGGA,080935.663,3747.6943,N,12222.4806,W,1,8,1.2,0.0,M,19.6,M,,*7B
"
2025-07-09T08:09:35.663346,GPS,367000003,,,,,,"$GPRMC,080935.663,A,3747.6943,N,12222.4806,W,10.1,6.0,090725,0.0,E,N*27
"
2025-07-09T08:09:36.663346,GPS,367000001,,,,,,"$GPGGA,080936.663,3747.3011,N,12223.3840,W,1,8,1.2,0.0,M,19.6,M,,*77
"
2025-07-09T08:09:36.663346,GPS,367000001,,,,,,"$GPRMC,080936.663,A,3747.3011,N,12223.3840,W,9.2,158.0,090725,0.0,E,N*1A
"
2025-07-09T08:09:36.663346,GPS,367000002,,,,,,"$GPGGA,080936.663,3749.8123,N,12228.2967,W,1,8,1.2,0.0,M,19.6,M,,*7C
"
2025-07-09T08:09:36.663346,GPS,367000002,,,,,,"$GPRMC,080936.663,A,3749.8123,N,12228.2967,W,4.9,65.0,090725,0.0,E,N*28
"
2025-07-09T08:09:36.663346,GPS,367000003,,,,,,"$GPGGA,080936.663,3747.6966,N,12222.4805,W,1,8,1.2,0.0,M,19.6,M,,*7C
"
2025-07-09T08:09:36.663346,GPS,367000003,,,,,,"$GPRMC,080936.663,A,3747.6966,N,12222.4805,W,9.9,6.0,090725,0.0,E,N*10
"
2025-07-09T08:09:37.663346,GPS,367000001,,,,,,"$GPGGA,080937.663,3747.2986,N,12223.3814,W,1,8,1.2,0.0,M,19.6,M,,*71
"
2025-07-09T08:09:37.663346,GPS,367000001,,,,,,"$GPRMC,080937.663,A,3747.2986,N,12223.3814,W,9.4,158.0,090725,0.0,E,N*1A
"
2025-07-09T08:09:37.663346,GPS,367000002,,,,,,"$GPGGA,080937.663,3749.8128,N,12228.2936,W,1,8,1.2,0.0,M,19.6,M,,*72
"
2025-07-09T08:09:37.663346,GPS,367000002,,,,,,"$GPRMC,080937.663,A,3749.8128,N,12228.2936,W,5.1,65.0,090725,0.0,E,N*2F
"
2025-07-09T08:09:37.663346,GPS,367000003,,,,,,"$GPGGA,080937.663,3747.6993,N,12222.4787,W,1,8,1.2,0.0,M,19.6,M,,*72
"
2025-07-09T08:09:37.663346,GPS,367000003,,,,,,"$GPRMC,080937.663,A,3747.6993,N,12222.4787,W,10.1,6.0,090725,0.0,E,N*2E
"
2025-07-09T08:09:38.663346,GPS,367000001,,,,,,"$GPGGA,080938.663,3747.2955,N,12223.3797,W,1,8,1.2,0.0,M,19.6,M,,*74
"
2025-07-09T08:09:38.663346,GPS,367000001,,,,,,"$GPRMC,080938.663,A,3747.2955,N,12223.3797,W,9.2,158.0,090725,0.0,E,N*19
"
2025-07-09T08:09:38.663346,GPS,367000002,,,,,,"$GPGGA,080938.663,3749.8127,N,12228.2916,W,1,8,1.2,0.0,M,19.6,M,,*70
"
2025-07-09T08:09:38.663346,GPS,367000002,,,,,,"$GPRMC,080938.663,A,3749.8127,N,12228.2916,W,4.9,65.0,090725,0.0,E,N*24
"
2025-07-09T08:09:38.663346,GPS,367000003,,,,,,"$GPGGA,080938.663,3747.7014,N,12222.4779,W,1,8,1.2,0.0,M,19.6,M,,*7B
"
2025-07-09T08:09:38.663346,GPS,367000003,,,,,,"$GPRMC,080938.663,A,3747.7014,N,12222.4779,W,9.9,6.0,090725,0.0,E,N*17
"
2025-07-09T08:09:39.663346,GPS,367000001,,,,,,"$GPGGA,080939.663,3747.2934,N,12223.3780,W,1,8,1.2,0.0,M,19.6,M,,*74
"
2025-07-09T08:09:39.663346,GPS,367000001,,,,,,"$GPRMC,080939.663,A,3747.2934,N,12223.3780,W,9.6,158.0,090725,0.0,E,N*1D
"
2025-07-09T08:09:39.663346,GPS,367000002,,,,,,"$GPGGA,080939.663,3749.8136,N,12228.2894,W,1,8,1.2,0.0,M,19.6,M,,*7A
"
2025-07-09T08:09:39.663346,GPS,367000002,,,,,,"$GPRMC,080939.663,A,3749.8136,N,12228.2894,W,5.3,65.0,090725,0.0,E,N*25
"
2025-07-09T08:09:39.663346,GPS,367000003,,,,,,"$GPGGA,080939.663,3747.7045,N,12222.4770,W,1,8,1.2,0.0,M,19.6,M,,*77
"
2025-07-09T08:09:39.663346,GPS,367000003,,,,,,"$GPRMC,080939.663,A,3747.7045,N,12222.4770,W,10.3,6.0,090725,0.0,E,N*29
"
2025-07-09T08:09:40.663346,GPS,367000001,,,,,,"$GPGGA,080940.663,3747.2908,N,12223.3775,W,1,8,1.2,0.0,M,19.6,M,,*7F
"
2025-07-09T08:09:40.663346,GPS,367000001,,,,,,"$GPRMC,080940.663,A,3747.2908,N,12223.3775,W,9.6,158.0,090725,0.0,E,N*16
"
2025-07-09T08:09:40.663346,GPS,367000002,,,,,,"$GPGGA,080940.663,3749.8142,N,12228.2886,W,1,8,1.2,0.0,M,19.6,M,,*74
"
2025-07-09T08:09:40.663346,GPS,367000002,,,,,,"$GPRMC,080940.663,A,3749.8142,N,12228.2886,W,5.3,65.0,090725,0.0,E,N*2B
"
2025-07-09T08:09:40.663346,GPS,367000003,,,,,,"$GPGGA,080940.663,3747.7073,N,12222.4775,W,1,8,1.2,0.0,M,19.6,M,,*79
"
2025-07-09T08:09:40.663346,GPS,367000003,,,,,,"$GPRMC,080940.663,A,3747.7073,N,12222.4775,W,10.3,6.0,090725,0.0,E,N*27
"
2025-07-09T08:09:40.663346,AIS,367000001,1,37.78818047619247,-122.38962583196196,9.62271978966444,158,"!AIVDM,1,1,,A,15Mwqh@01PG?gbREWn36;4u@0000,0*7C"
2025-07-09T08:09:40.663346,AIS,367000001,2,37.78818047619247,-122.38962583196196,9.62271978966444,158,"!AIVDM,1,1,,A,25Mwqh@01PG?gbREWn36;4u@0000,0*7F"
2025-07-09T08:09:40.663346,AIS,367000001,3,37.78818047619247,-122.38962583196196,9.62271978966444,158,"!AIVDM,1,1,,A,35Mwqh@01PG?gbREWn36;4u@0000,0*7E"
2025-07-09T08:09:40.663346,AIS,367000002,1,37.8302364853374,-122.47147642135941,5.32938976329122,65,"!AIVDM,1,1,,A,15MwqhP00mG?GclEaHWRRR3@0000,0*16"
2025-07-09T08:09:40.663346,AIS,367000002,2,37.8302364853374,-122.47147642135941,5.32938976329122,65,"!AIVDM,1,1,,A,25MwqhP00mG?GclEaHWRRR3@0000,0*15"
2025-07-09T08:09:40.663346,AIS,367000002,3,37.8302364853374,-122.47147642135941,5.32938976329122,65,"!AIVDM,1,1,,A,35MwqhP00mG?GclEaHWRRR3@0000,0*14"
2025-07-09T08:09:40.663346,AIS,367000003,1,37.79512185034125,-122.3746253283611,10.32598708282066,6,"!AIVDM,1,1,,A,15Mwqhh01WG?l3jE`6D@?0=@0000,0*17"
2025-07-09T08:09:40.663346,AIS,367000003,2,37.79512185034125,-122.3746253283611,10.32598708282066,6,"!AIVDM,1,1,,A,25Mwqhh01WG?l3jE`6D@?0=@0000,0*14"
2025-07-09T08:09:40.663346,AIS,367000003,3,37.79512185034125,-122.3746253283611,10.32598708282066,6,"!AIVDM,1,1,,A,35Mwqhh01WG?l3jE`6D@?0=@0000,0*15"
2025-07-09T08:09:41.663346,GPS,367000001,,,,,,"$GPGGA,080941.663,3747.2890,N,12223.3772,W,1,8,1.2,0.0,M,19.6,M,,*79
"
2025-07-09T08:09:41.663346,GPS,367000001,,,,,,"$GPRMC,080941.663,A,3747.2890,N,12223.3772,W,9.2,158.0,090725,0.0,E,N*14
"
2025-07-09T08:09:41.663346,GPS,367000002,,,,,,"$GPGGA,080941.663,3749.8153,N,12228.2879,W,1,8,1.2,0.0,M,19.6,M,,*75
"
2025-07-09T08:09:41.663346,GPS,367000002,,,,,,"$GPRMC,080941.663,A,3749.8153,N,12228.2879,W,4.9,65.0,090725,0.0,E,N*21
"
2025-07-09T08:09:41.663346,GPS,367000003,,,,,,"$GPGGA,080941.663,3747.7106,N,12222.4780,W,1,8,1.2,0.0,M,19.6,M,,*71
"
2025-07-09T08:09:41.663346,GPS,367000003,,,,,,"$GPRMC,080941.663,A,3747.7106,N,12222.4780,W,9.9,6.0,090725,0.0,E,N*1D
"
2025-07-09T08:09:42.663346,GPS,367000001,,,,,,"$GPGGA,080942.663,3747.2868,N,12223.3762,W,1,8,1.2,0.0,M,19.6,M,,*7C
"
2025-07-09T08:09:42.663346,GPS,367000001,,,,,,"$GPRMC,080942.663,A,3747.2868,N,12223.3762,W,9.3,158.0,090725,0.0,E,N*10
"
2025-07-09T08:09:42.663346,GPS,367000002,,,,,,"$GPGGA,080942.663,3749.8161,N,12228.2865,W,1,8,1.2,0.0,M,19.6,M,,*7A
"
2025-07-09T08:09:42.663346,GPS,367000002,,,,,,"$GPRMC,080942.663,A,3749.8161,N,12228.2865,W,5.1,65.0,090725,0.0,E,N*27
"
2025-07-09T08:09:42.663346,GPS,367000003,,,,,,"$GPGGA,080942.663,3747.7136,N,12222.4778,W,1,8,1.2,0.0,M,19.6,M,,*76
"
2025-07-09T08:09:42.663346,GPS,367000003,,,,,,"$GPRMC,080942.663,A,3747.7136,N,12222.4778,W,10.0,6.0,090725,0.0,E,N*2B
"
2025-07-09T08:09:43.663346,GPS,367000001,,,,,,"$GPGGA,080943.663,3747.2847,N,12223.3735,W,1,8,1.2,0.0,M,19.6,M,,*72
"
2025-07-09T08:09:43.663346,GPS,367000001,,,,,,"$GPRMC,080943.663,A,3747.2847,N,12223.3735,W,9.5,158.0,090725,0.0,E,N*18
"
2025-07-09T08:09:43.663346,GPS,367000002,,,,,,"$GPGGA,080943.663,3749.8170,N,12228.2834,W,1,8,1.2,0.0,M,19.6,M,,*7F
"
2025-07-09T08:09:43.663346,GPS,367000002,,,,,,"$GPRMC,080943.663,A,3749.8170,N,12228.2834,W,5.2,65.0,090725,0.0,E,N*21
"
2025-07-09T08:09:43.663346,GPS,367000003,,,,,,"$GPGGA,080943.663,3747.7167,N,12222.4761,W,1,8,1.2,0.0,M,19.6,M,,*7B
"
2025-07-09T08:09:43.663346,GPS,367000003,,,,,,"$GPRMC,080943.663,A,3747.7167,N,12222.4761,W,10.2,6.0,090725,0.0,E,N*24
"
2025-07-09T08:09:44.663346,GPS,367000001,,,,,,"$GPGGA,080944.663,3747.2819,N,12223.3726,W,1,8,1.2,0.0,M,19.6,M,,*7C
"
2025-07-09T08:09:44.663346,GPS,367000001,,,,,,"$GPRMC,080944.663,A,3747.2819,N,12223.3726,W,9.5,158.0,090725,0.0,E,N*16
"
2025-07-09T08:09:44.663346,GPS,367000002,,,,,,"$GPGGA,080944.663,3749.8173,N,12228.2821,W,1,8,1.2,0.0,M,19.6,M,,*7F
"
2025-07-09T08:09:44.663346,GPS,367000002,,,,,,"$GPRMC,080944.663,A,3749.8173,N,12228.2821,W,5.2,65.0,090725,0.0,E,N*21
"
2025-07-09T08:09:44.663346,GPS,367000003,,,,,,"$GPGGA,080944.663,3747.7192,N,12222.4760,W,1,8,1.2,0.0,M,19.6,M,,*77
"
2025-07-09T08:09:44.663346,GPS,367000003,,,,,,"$GPRMC,080944.663,A,3747.7192,N,12222.4760,W,10.2,6.0,090725,0.0,E,N*28
"
2025-07-09T08:09:45.663346,GPS,367000001,,,,,,"$GPGGA,080945.663,3747.2801,N,12223.3717,W,1,8,1.2,0.0,M,19.6,M,,*76
"
2025-07-09T08:09:45.663346,GPS,367000001,,,,,,"$GPRMC,080945.663,A,3747.2801,N,12223.3717,W,9.2,158.0,090725,0.0,E,N*1B
"
2025-07-09T08:09:45.663346,GPS,367000002,,,,,,"$GPGGA,080945.663,3749.8184,N,12228.2809,W,1,8,1.2,0.0,M,19.6,M,,*7C
"
2025-07-09T08:09:45.663346,GPS,367000002,,,,,,"$GPRMC,080945.663,A,3749.8184,N,12228.2809,W,4.9,65.0,090725,0.0,E,N*28
"
2025-07-09T08:09:45.663346,GPS,367000003,,,,,,"$GPGGA,080945.663,3747.7224,N,12222.4760,W,1,8,1.2,0.0,M,19.6,M,,*78
"
2025-07-09T08:09:45.663346,GPS,367000003,,,,,,"$GPRMC,080945.663,A,3747.7224,N,12222.4760,W,9.9,6.0,090725,0.0,E,N*14
"
2025-07-09T08:09:46.663346,GPS,367000001,,,,,,"$GPGGA,080946.663,3747.2781,N,12223.3710,W,1,8,1.2,0.0,M,19.6,M,,*75
"
2025-07-09T08:09:46.663346,GPS,367000001,,,,,,"$GPRMC,080946.663,A,3747.2781,N,12223.3710,W,9.3,158.0,090725,0.0,E,N*19
"
2025-07-09T08:09:46.663346,GPS,367000002,,,,,,"$GPGGA,080946.663,3749.8195,N,12228.2797,W,1,8,1.2,0.0,M,19.6,M,,*77
"
2025-07-09T08:09:46.663346,GPS,367000002,,,,,,"$GPRMC,080946.663,A,3749.8195,N,12228.2797,W,5.0,65.0,090725,0.0,E,N*2B
"
2025-07-09T08:09:46.663346,GPS,367000003,,,,,,"$GPGGA,080946.663,3747.7257,N,12222.4761,W,1,8,1.2,0.0,M,19.6,M,,*7E
"
2025-07-09T08:09:46.663346,GPS,367000003,,,,,,"$GPRMC,080946.663,A,3747.7257,N,12222.4761,W,10.0,6.0,090725,0.0,E,N*23
"
2025-07-09T08:09:47.663346,GPS,367000001,,,,,,"$GPGGA,080947.663,3747.2746,N,12223.3704,W,1,8,1.2,0.0,M,19.6,M,,*7A
"
2025-07-09T08:09:47.663346,GPS,367000001,,,,,,"$GPRMC,080947.663,A,3747.2746,N,12223.3704,W,9.3,158.0,090725,0.0,E,N*16
"
2025-07-09T08:09:47.663346,GPS,367000002,,,,,,"$GPGGA,080947.663,3749.8189,N,12228.2788,W,1,8,1.2,0.0,M,19.6,M,,*75
"
2025-07-09T08:09:47.663346,GPS,367000002,,,,,,"$GPRMC,080947.663,A,3749.8189,N,12228.2788,W,5.0,65.0,090725,0.0,E,N*29
"
2025-07-09T08:09:47.663346,GPS,367000003,,,,,,"$GPGGA,080947.663,3747.7273,N,12222.4764,W,1,8,1.2,0.0,M,19.6,M,,*7C
"
2025-07-09T08:09:47.663346,GPS,367000003,,,,,,"$GPRMC,080947.663,A,3747.7273,N,12222.4764,W,10.0,6.0,090725,0.0,E,N*21
"
2025-07-09T08:09:48.663346,GPS,367000001,,,,,,"$GPGGA,080948.663,3747.2725,N,12223.3685,W,1,8,1.2,0.0,M,19.6,M,,*78
"
2025-07-09T08:09:48.663346,GPS,367000001,,,,,,"$GPRMC,080948.663,A,3747.2725,N,12223.3685,W,9.2,158.0,090725,0.0,E,N*15
"
2025-07-09T08:09:48.663346,GPS,367000002,,,,,,"$GPGGA,080948.663,3749.8198,N,12228.2765,W,1,8,1.2,0.0,M,19.6,M,,*79
"
2025-07-09T08:09:48.663346,GPS,367000002,,,,,,"$GPRMC,080948.663,A,3749.8198,N,12228.2765,W,4.9,65.0,090725,0.0,E,N*2D
"
2025-07-09T08:09:48.663346,GPS,367000003,,,,,,"$GPGGA,080948.663,3747.7303,N,12222.4753,W,1,8,1.2,0.0,M,19.6,M,,*71
"
2025-07-09T08:09:48.663346,GPS,367000003,,,,,,"$GPRMC,080948.663,A,3747.7303,N,12222.4753,W,9.9,6.0,090725,0.0,E,N*1D
"
2025-07-09T08:09:49.663346,GPS,367000001,,,,,,"$GPGGA,080949.663,3747.2703,N,12223.3671,W,1,8,1.2,0.0,M,19.6,M,,*76
"
2025-07-09T08:09:49.663346,GPS,367000001,,,,,,"$GPRMC,080949.663,A,3747.2703,N,12223.3671,W,9.3,158.0,090725,0.0,E,N*1A
"
2025-07-09T08:09:49.663346,GPS,367000002,,,,,,"$GPGGA,080949.663,3749.8205,N,12228.2748,W,1,8,1.2,0.0,M,19.6,M,,*70
"
2025-07-09T08:09:49.663346,GPS,367000002,,,,,,"$GPRMC,080949.663,A,3749.8205,N,12228.2748,W,5.0,65.0,090725,0.0,E,N*2C
"
2025-07-09T08:09:49.663346,GPS,367000003,,,,,,"$GPGGA,080949.663,3747.7332,N,12222.4748,W,1,8,1.2,0.0,M,19.6,M,,*78
"
2025-07-09T08:09:49.663346,GPS,367000003,,,,,,"$GPRMC,080949.663,A,3747.7332,N,12222.4748,W,10.0,6.0,090725,0.0,E,N*25
"
2025-07-09T08:09:50.663346,GPS,367000001,,,,,,"$GPGGA,080950.663,3747.2684,N,12223.3657,W,1,8,1.2,0.0,M,19.6,M,,*74
"
2025-07-09T08:09:50.663346,GPS,367000001,,,,,,"$GPRMC,080950.663,A,3747.2684,N,12223.3657,W,9.6,158.0,090725,0.0,E,N*1D
"
2025-07-09T08:09:50.663346,GPS,367000002,,,,,,"$GPGGA,080950.663,3749.8217,N,12228.2730,W,1,8,1.2,0.0,M,19.6,M,,*74
"
2025-07-09T08:09:50.663346,GPS,367000002,,,,,,"$GPRMC,080950.663,A,3749.8217,N,12228.2730,W,5.3,65.0,090725,0.0,E,N*2B
"
2025-07-09T08:09:50.663346,GPS,367000003,,,,,,"$GPGGA,080950.663,3747.7366,N,12222.4743,W,1,8,1.2,0.0,M,19.6,M,,*7A
"
2025-07-09T08:09:50.663346,GPS,367000003,,,,,,"$GPRMC,080950.663,A,3747.7366,N,12222.4743,W,10.3,6.0,090725,0.0,E,N*24
"
2025-07-09T08:09:50.663346,AIS,367000001,1,37.78780589060428,-122.38942836622525,9.554399016866729,158,"!AIVDM,1,1,,A,15Mwqh@01PG?gf>EWm;6;4uT0000,0*0B"
2025-07-09T08:09:50.663346,AIS,367000001,2,37.78780589060428,-122.38942836622525,9.554399016866729,158,"!AIVDM,1,1,,A,25Mwqh@01PG?gf>EWm;6;4uT0000,0*08"
2025-07-09T08:09:50.663346,AIS,367000001,3,37.78780589060428,-122.38942836622525,9.554399016866729,158,"!AIVDM,1,1,,A,35Mwqh@01PG?gf>EWm;6;4uT0000,0*09"
2025-07-09T08:09:50.663346,AIS,367000001,18,37.78780589060428,-122.38942836622525,9.554399016866729,158,"!AIVDM,1,1,,A,B5Mwqh@0H5kssSUIuBiRi?I40000,0*7C"
2025-07-09T08:09:50.663346,AIS,367000001,19,37.78780589060428,-122.38942836622525,9.554399016866729,158,"!AIVDM,1,1,,A,C5Mwqh@0H5kssSUIuBiRi?I17OMa3CM;UwWACQvPR000S48C32RP,0*57"
2025-07-09T08:09:50.663346,AIS,367000002,1,37.83036125098289,-122.4712158555692,5.261068990493508,65,"!AIVDM,1,1,,A,15MwqhP00mG?GhdEaHrBRR3T0000,0*34"
2025-07-09T08:09:50.663346,AIS,367000002,2,37.83036125098289,-122.4712158555692,5.261068990493508,65,"!AIVDM,1,1,,A,25MwqhP00mG?GhdEaHrBRR3T0000,0*37"
2025-07-09T08:09:50.663346,AIS,367000002,3,37.83036125098289,-122.4712158555692,5.261068990493508,65,"!AIVDM,1,1,,A,35MwqhP00mG?GhdEaHrBRR3T0000,0*36"
2025-07-09T08:09:50.663346,AIS,367000002,18,37.83036125098289,-122.4712158555692,5.261068990493508,65,"!AIVDM,1,1,,A,B5MwqhP0=Ekmt;5JF>T``Pq40000,0*65"
2025-07-09T08:09:50.663346,AIS,367000002,19,37.83036125098289,-122.4712158555692,5.261068990493508,65,"!AIVDM,1,1,,A,C5MwqhP0=Ekmt;5JF>T``Pq1a3MG;UvPT00000000000`:<>U4RP,0*2E"
2025-07-09T08:09:50.663346,AIS,367000003,1,37.795610059077816,-122.37457123426314,10.257666310022948,6,"!AIVDM,1,1,,A,15Mwqhh01WG?l4jE`7MP?0=T0000,0*1C"
2025-07-09T08:09:50.663346,AIS,367000003,2,37.795610059077816,-122.37457123426314,10.257666310022948,6,"!AIVDM,1,1,,A,25Mwqhh01WG?l4jE`7MP?0=T0000,0*1F"
2025-07-09T08:09:50.663346,AIS,367000003,3,37.795610059077816,-122.37457123426314,10.257666310022948,6,"!AIVDM,1,1,,A,35Mwqhh01WG?l4jE`7MP?0=T0000,0*1E"
2025-07-09T08:09:50.663346,AIS,367000003,18,37.795610059077816,-122.37457123426314,10.257666310022948,6,"!AIVDM,1,1,,A,B5Mwqhh0Imku1<UJ1oH3h3I40000,0*01"
2025-07-09T08:09:50.663346,AIS,367000003,19,37.795610059077816,-122.37457123426314,10.257666310022948,6,"!AIVDM,1,1,,A,C5Mwqhh0Imku1<UJ1oH3h3I1=CWACM?we;WW;IvPV000?:06b32P,0*77"
2025-07-09T08:09:51.663346,GPS,367000001,,,,,,"$GPGGA,080951.663,3747.2665,N,12223.3643,W,1,8,1.2,0.0,M,19.6,M,,*7F
"
2025-07-09T08:09:51.663346,GPS,367000001,,,,,,"$GPRMC,080951.663,A,3747.2665,N,12223.3643,W,9.1,158.0,090725,0.0,E,N*11
"
2025-07-09T08:09:51.663346,GPS,367000002,,,,,,"$GPGGA,080951.663,3749.8228,N,12228.2712,W,1,8,1.2,0.0,M,19.6,M,,*79
"
2025-07-09T08:09:51.663346,GPS,367000002,,,,,,"$GPRMC,080951.663,A,3749.8228,N,12228.2712,W,4.8,65.0,090725,0.0,E,N*2C
"
2025-07-09T08:09:51.663346,GPS,367000003,,,,,,"$GPGGA,080951.663,3747.7399,N,12222.4737,W,1,8,1.2,0.0,M,19.6,M,,*78
"
2025-07-09T08:09:51.663346,GPS,367000003,,,,,,"$GPRMC,080951.663,A,3747.7399,N,12222.4737,W,9.8,6.0,090725,0.0,E,N*15
"
2025-07-09T08:09:52.663346,GPS,367000001,,,,,,"$GPGGA,080952.663,3747.2641,N,12223.3618,W,1,8,1.2,0.0,M,19.6,M,,*74
"
2025-07-09T08:09:52.663346,GPS,367000001,,,,,,"$GPRMC,080952.663,A,3747.2641,N,12223.3618,W,9.6,158.0,090725,0.0,E,N*1D
"
2025-07-09T08:09:52.663346,GPS,367000002,,,,,,"$GPGGA,080952.663,3749.8234,N,12228.2683,W,1,8,1.2,0.0,M,19.6,M,,*7E
"
2025-07-09T08:09:52.663346,GPS,367000002,,,,,,"$GPRMC,080952.663,A,3749.8234,N,12228.2683,W,5.3,65.0,090725,0.0,E,N*21
"
2025-07-09T08:09:52.663346,GPS,367000003,,,,,,"$GPGGA,080952.663,3747.7427,N,12222.4721,W,1,8,1.2,0.0,M,19.6,M,,*7E
"
2025-07-09T08:09:52.663346,GPS,367000003,,,,,,"$GPRMC,080952.663,A,3747.7427,N,12222.4721,W,10.3,6.0,090725,0.0,E,N*20
"
2025-07-09T08:09:53.663346,GPS,367000001,,,,,,"$GPGGA,080953.663,3747.2626,N,12223.3606,W,1,8,1.2,0.0,M,19.6,M,,*7B
"
2025-07-09T08:09:53.663346,GPS,367000001,,,,,,"$GPRMC,080953.663,A,3747.2626,N,12223.3606,W,9.3,158.0,090725,0.0,E,N*17
"
2025-07-09T08:09:53.663346,GPS,367000002,,,,,,"$GPGGA,080953.663,3749.8249,N,12228.2667,W,1,8,1.2,0.0,M,19.6,M,,*7F
"
2025-07-09T08:09:53.663346,GPS,367000002,,,,,,"$GPRMC,080953.663,A,3749.8249,N,12228.2667,W,5.0,65.0,090725,0.0,E,N*23
"
2025-07-09T08:09:53.663346,GPS,367000003,,,,,,"$GPGGA,080953.663,3747.7464,N,12222.4717,W,1,8,1.2,0.0,M,19.6,M,,*7D
"
2025-07-09T08:09:53.663346,GPS,367000003,,,,,,"$GPRMC,080953.663,A,3747.7464,N,12222.4717,W,10.0,6.0,090725,0.0,E,N*20
"
2025-07-09T08:09:54.663346,GPS,367000001,,,,,,"$GPGGA,080954.663,3747.2596,N,12223.3594,W,1,8,1.2,0.0,M,19.6,M,,*7C
"
2025-07-09T08:09:54.663346,GPS,367000001,,,,,,"$GPRMC,080954.663,A,3747.2596,N,12223.3594,W,9.2,158.0,090725,0.0,E,N*11
"
2025-07-09T08:09:54.663346,GPS,367000002,,,,,,"$GPGGA,080954.663,3749.8248,N,12228.2652,W,1,8,1.2,0.0,M,19.6,M,,*7F
"
2025-07-09T08:09:54.663346,GPS,367000002,,,,,,"$GPRMC,080954.663,A,3749.8248,N,12228.2652,W,4.9,65.0,090725,0.0,E,N*2B
"
2025-07-09T08:09:54.663346,GPS,367000003,,,,,,"$GPGGA,080954.663,3747.7485,N,12222.4714,W,1,8,1.2,0.0,M,19.6,M,,*76
"
2025-07-09T08:09:54.663346,GPS,367000003,,,,,,"$GPRMC,080954.663,A,3747.7485,N,12222.4714,W,9.9,6.0,090725,0.0,E,N*1A
"
2025-07-09T08:09:55.663346,GPS,367000001,,,,,,"$GPGGA,080955.663,3747.2576,N,12223.3577,W,1,8,1.2,0.0,M,19.6,M,,*7E
"
2025-07-09T08:09:55.663346,GPS,367000001,,,,,,"$GPRMC,080955.663,A,3747.2576,N,12223.3577,W,9.6,158.0,090725,0.0,E,N*17
"
2025-07-09T08:09:55.663346,GPS,367000002,,,,,,"$GPGGA,080955.663,3749.8259,N,12228.2631,W,1,8,1.2,0.0,M,19.6,M,,*7B
"
2025-07-09T08:09:55.663346,GPS,367000002,,,,,,"$GPRMC,080955.663,A,3749.8259,N,12228.2631,W,5.3,65.0,090725,0.0,E,N*24
"
2025-07-09T08:09:55.663346,GPS,367000003,,,,,,"$GPGGA,080955.663,3747.7518,N,12222.4706,W,1,8,1.2,0.0,M,19.6,M,,*71
"
2025-07-09T08:09:55.663346,GPS,367000003,,,,,,"$GPRMC,080955.663,A,3747.7518,N,12222.4706,W,10.3,6.0,090725,0.0,E,N*2F
"
2025-07-09T08:09:56.663346,GPS,367000001,,,,,,"$GPGGA,080956.663,3747.2557,N,12223.3562,W,1,8,1.2,0.0,M,19.6,M,,*7A
"
2025-07-09T08:09:56.663346,GPS,367000001,,,,,,"$GPRMC,080956.663,A,3747.2557,N,12223.3562,W,8.9,158.0,090725,0.0,E,N*1D
"
2025-07-09T08:09:56.663346,GPS,367000002,,,,,,"$GPGGA,080956.663,3749.8269,N,12228.2613,W,1,8,1.2,0.0,M,19.6,M,,*7B
"
2025-07-09T08:09:56.663346,GPS,367000002,,,,,,"$GPRMC,080956.663,A,3749.8269,N,12228.2613,W,4.6,65.0,090725,0.0,E,N*20
"
2025-07-09T08:09:56.663346,GPS,367000003,,,,,,"$GPGGA,080956.663,3747.7549,N,12222.4699,W,1,8,1.2,0.0,M,19.6,M,,*71
"
2025-07-09T08:09:56.663346,GPS,367000003,,,,,,"$GPRMC,080956.663,A,3747.7549,N,12222.4699,W,9.6,6.0,090725,0.0,E,N*12
"
2025-07-09T08:09:57.663346,GPS,367000001,,,,,,"$GPGGA,080957.663,3747.2530,N,12223.3550,W,1,8,1.2,0.0,M,19.6,M,,*7B
"
2025-07-09T08:09:57.663346,GPS,367000001,,,,,,"$GPRMC,080957.663,A,3747.2530,N,12223.3550,W,9.2,158.0,090725,0.0,E,N*16
"
2025-07-09T08:09:57.663346,GPS,367000002,,,,,,"$GPGGA,080957.663,3749.8271,N,12228.2597,W,1,8,1.2,0.0,M,19.6,M,,*7C
"
2025-07-09T08:09:57.663346,GPS,367000002,,,,,,"$GPRMC,080957.663,A,3749.8271,N,12228.2597,W,4.9,65.0,090725,0.0,E,N*28
"
2025-07-09T08:09:57.663346,GPS,367000003,,,,,,"$GPGGA,080957.663,3747.7572,N,12222.4696,W,1,8,1.2,0.0,M,19.6,M,,*77
"
2025-07-09T08:09:57.663346,GPS,367000003,,,,,,"$GPRMC,080957.663,A,3747.7572,N,12222.4696,W,9.9,6.0,090725,0.0,E,N*1B
"
2025-07-09T08:09:58.663346,GPS,367000001,,,,,,"$GPGGA,080958.663,3747.2499,N,12223.3540,W,1,8,1.2,0.0,M,19.6,M,,*77
"
2025-07-09T08:09:58.663346,GPS,367000001,,,,,,"$GPRMC,080958.663,A,3747.2499,N,12223.3540,W,9.7,158.0,090725,0.0,E,N*1F
"
2025-07-09T08:09:58.663346,GPS,367000002,,,,,,"$GPGGA,080958.663,3749.8271,N,12228.2583,W,1,8,1.2,0.0,M,19.6,M,,*76
"
2025-07-09T08:09:58.663346,GPS,367000002,,,,,,"$GPRMC,080958.663,A,3749.8271,N,12228.2583,W,5.4,65.0,090725,0.0,E,N*2E
"
2025-07-09T08:09:58.663346,GPS,367000003,,,,,,"$GPGGA,080958.663,3747.7595,N,12222.4695,W,1,8,1.2,0.0,M,19.6,M,,*72
"
2025-07-09T08:09:58.663346,GPS,367000003,,,,,,"$GPRMC,080958.663,A,3747.7595,N,12222.4695,W,10.4,6.0,090725,0.0,E,N*2B
"
2025-07-09T08:09:59.663346,GPS,367000001,,,,,,"$GPGGA,080959.663,3747.2471,N,12223.3530,W,1,8,1.2,0.0,M,19.6,M,,*77
"
2025-07-09T08:09:59.663346,GPS,367000001,,,,,,"$GPRMC,080959.663,A,3747.2471,N,12223.3530,W,9.6,158.0,090725,0.0,E,N*1E
"
2025-07-09T08:09:59.663346,GPS,367000002,,,,,,"$GPGGA,080959.663,3749.8275,N,12228.2568,W,1,8,1.2,0.0,M,19.6,M,,*76
"
2025-07-09T08:09:59.663346,GPS,367000002,,,,,,"$GPRMC,080959.663,A,3749.8275,N,12228.2568,W,5.3,65.0,090725,0.0,E,N*29
"
2025-07-09T08:09:59.663346,GPS,367000003,,,,,,"$GPGGA,080959.663,3747.7620,N,12222.4693,W,1,8,1.2,0.0,M,19.6,M,,*78
"
2025-07-09T08:09:59.663346,GPS,367000003,,,,,,"$GPRMC,080959.663,A,3747.7620,N,12222.4693,W,10.3,6.0,090725,0.0,E,N*26
"
2025-07-09T08:10:00.663346,GPS,367000001,,,,,,"$GPGGA,081000.663,3747.2440,N,12223.3516,W,1,8,1.2,0.0,M,19.6,M,,*75
"
2025-07-09T08:10:00.663346,GPS,367000001,,,,,,"$GPRMC,081000.663,A,3747.2440,N,12223.3516,W,9.4,158.0,090725,0.0,E,N*1E
"
2025-07-09T08:10:00.663346,GPS,367000002,,,,,,"$GPGGA,081000.663,3749.8273,N,12228.2550,W,1,8,1.2,0.0,M,19.6,M,,*7F
"
2025-07-09T08:10:00.663346,GPS,367000002,,,,,,"$GPRMC,081000.663,A,3749.8273,N,12228.2550,W,5.1,65.0,090725,0.0,E,N*22
"
2025-07-09T08:10:00.663346,GPS,367000003,,,,,,"$GPGGA,081000.663,3747.7641,N,12222.4688,W,1,8,1.2,0.0,M,19.6,M,,*71
"
2025-07-09T08:10:00.663346,GPS,367000003,,,,,,"$GPRMC,081000.663,A,3747.7641,N,12222.4688,W,10.1,6.0,090725,0.0,E,N*2D
"
2025-07-09T08:10:00.663346,AIS,367000001,1,37.78739942682287,-122.38919345957764,9.357006063633742,158,"!AIVDM,1,1,,A,15Mwqh@01NG?gj`EWl>6;4t00000,0*26"
2025-07-09T08:10:00.663346,AIS,367000001,2,37.78739942682287,-122.38919345957764,9.357006063633742,158,"!AIVDM,1,1,,A,25Mwqh@01NG?gj`EWl>6;4t00000,0*25"
2025-07-09T08:10:00.663346,AIS,367000001,3,37.78739942682287,-122.38919345957764,9.357006063633742,158,"!AIVDM,1,1,,A,35Mwqh@01NG?gj`EWl>6;4t00000,0*24"
2025-07-09T08:10:00.663346,AIS,367000002,1,37.83045523093567,-122.47091730229073,5.063676037260524,65,"!AIVDM,1,1,,A,15MwqhP00kG?GnDEaI8BRR200000,0*3A"
2025-07-09T08:10:00.663346,AIS,367000002,2,37.83045523093567,-122.47091730229073,5.063676037260524,65,"!AIVDM,1,1,,A,25MwqhP00kG?GnDEaI8BRR200000,0*39"
2025-07-09T08:10:00.663346,AIS,367000002,3,37.83045523093567,-122.47091730229073,5.063676037260524,65,"!AIVDM,1,1,,A,35MwqhP00kG?GnDEaI8BRR200000,0*38"
2025-07-09T08:10:00.663346,AIS,367000003,1,37.79606794500838,-122.3744799743993,10.060273356789962,6,"!AIVDM,1,1,,A,15Mwqhh01UG?l6PE`8R@?0<00000,0*43"
2025-07-09T08:10:00.663346,AIS,367000003,2,37.79606794500838,-122.3744799743993,10.060273356789962,6,"!AIVDM,1,1,,A,25Mwqhh01UG?l6PE`8R@?0<00000,0*40"
2025-07-09T08:10:00.663346,AIS,367000003,3,37.79606794500838,-122.3744799743993,10.060273356789962,6,"!AIVDM,1,1,,A,35Mwqhh01UG?l6PE`8R@?0<00000,0*41"
2025-07-09T08:10:01.663346,GPS,367000001,,,,,,"$GPGGA,081001.663,3747.2422,N,12223.3504,W,1,8,1.2,0.0,M,19.6,M,,*73
"
2025-07-09T08:10:01.663346,GPS,367000001,,,,,,"$GPRMC,081001.663,A,3747.2422,N,12223.3504,W,9.1,158.0,090725,0.0,E,N*1D
"
2025-07-09T08:10:01.663346,GPS,367000002,,,,,,"$GPGGA,081001.663,3749.8284,N,12228.2535,W,1,8,1.2,0.0,M,19.6,M,,*75
"
2025-07-09T08:10:01.663346,GPS,367000002,,,,,,"$GPRMC,081001.663,A,3749.8284,N,12228.2535,W,4.8,65.0,090725,0.0,E,N*20
"
2025-07-09T08:10:01.663346,GPS,367000003,,,,,,"$GPGGA,081001.663,3747.7673,N,12222.4684,W,1,8,1.2,0.0,M,19.6,M,,*7D
"
2025-07-09T08:10:01.663346,GPS,367000003,,,,,,"$GPRMC,081001.663,A,3747.7673,N,12222.4684,W,9.8,6.0,090725,0.0,E,N*10
"
2025-07-09T08:10:02.663346,GPS,367000001,,,,,,"$GPGGA,081002.663,3747.2398,N,12223.3483,W,1,8,1.2,0.0,M,19.6,M,,*78
"
2025-07-09T08:10:02.663346,GPS,367000001,,,,,,"$GPRMC,081002.663,A,3747.2398,N,12223.3483,W,9.8,158.0,090725,0.0,E,N*1F
"
2025-07-09T08:10:02.663346,GPS,367000002,,,,,,"$GPGGA,081002.663,3749.8292,N,12228.2509,W,1,8,1.2,0.0,M,19.6,M,,*7E
"
2025-07-09T08:10:02.663346,GPS,367000002,,,,,,"$GPRMC,081002.663,A,3749.8292,N,12228.2509,W,5.5,65.0,090725,0.0,E,N*27
"
2025-07-09T08:10:02.663346,GPS,367000003,,,,,,"$GPGGA,081002.663,3747.7704,N,12222.4672,W,1,8,1.2,0.0,M,19.6,M,,*76
"
2025-07-09T08:10:02.663346,GPS,367000003,,,,,,"$GPRMC,081002.663,A,3747.7704,N,12222.4672,W,10.5,6.0,090725,0.0,E,N*2E
"
2025-07-09T08:10:03.663346,GPS,367000001,,,,,,"$GPGGA,081003.663,3747.2374,N,12223.3469,W,1,8,1.2,0.0,M,19.6,M,,*7F
"
2025-07-09T08:10:03.663346,GPS,367000001,,,,,,"$GPRMC,081003.663,A,3747.2374,N,12223.3469,W,9.1,158.0,090725,0.0,E,N*11
"
2025-07-09T08:10:03.663346,GPS,367000002,,,,,,"$GPGGA,081003.663,3749.8297,N,12228.2492,W,1,8,1.2,0.0,M,19.6,M,,*79
"
2025-07-09T08:10:03.663346,GPS,367000002,,,,,,"$GPRMC,081003.663,A,3749.8297,N,12228.2492,W,4.8,65.0,090725,0.0,E,N*2C
"
2025-07-09T08:10:03.663346,GPS,367000003,,,,,,"$GPGGA,081003.663,3747.7730,N,12222.4667,W,1,8,1.2,0.0,M,19.6,M,,*74
"
2025-07-09T08:10:03.663346,GPS,367000003,,,,,,"$GPRMC,081003.663,A,3747.7730,N,12222.4667,W,9.8,6.0,090725,0.0,E,N*19
"
2025-07-09T08:10:04.663346,GPS,367000001,,,,,,"$GPGGA,081004.663,3747.2339,N,12223.3450,W,1,8,1.2,0.0,M,19.6,M,,*7B
"
2025-07-09T08:10:04.663346,GPS,367000001,,,,,,"$GPRMC,081004.663,A,3747.2339,N,12223.3450,W,9.7,158.0,090725,0.0,E,N*13
"
2025-07-09T08:10:04.663346,GPS,367000002,,,,,,"$GPGGA,081004.663,3749.8293,N,12228.2469,W,1,8,1.2,0.0,M,19.6,M,,*7E
"
2025-07-09T08:10:04.663346,GPS,367000002,,,,,,"$GPRMC,081004.663,A,3749.8293,N,12228.2469,W,5.4,65.0,090725,0.0,E,N*26
"
2025-07-09T08:10:04.663346,GPS,367000003,,,,,,"$GPGGA,081004.663,3747.7749,N,12222.4657,W,1,8,1.2,0.0,M,19.6,M,,*7E
"
2025-07-09T08:10:04.663346,GPS,367000003,,,,,,"$GPRMC,081004.663,A,3747.7749,N,12222.4657,W,10.4,6.0,090725,0.0,E,N*27
"
2025-07-09T08:10:05.663346,GPS,367000001,,,,,,"$GPGGA,081005.663,3747.2324,N,12223.3434,W,1,8,1.2,0.0,M,19.6,M,,*74
"
2025-07-09T08:10:05.663346,GPS,367000001,,,,,,"$GPRMC,081005.663,A,3747.2324,N,12223.3434,W,9.5,158.0,090725,0.0,E,N*1E
"
2025-07-09T08:10:05.663346,GPS,367000002,,,,,,"$GPGGA,081005.663,3749.8309,N,12228.2448,W,1,8,1.2,0.0,M,19.6,M,,*7E
"
2025-07-09T08:10:05.663346,GPS,367000002,,,,,,"$GPRMC,081005.663,A,3749.8309,N,12228.2448,W,5.2,65.0,090725,0.0,E,N*20
"
2025-07-09T08:10:05.663346,GPS,367000003,,,,,,"$GPGGA,081005.663,3747.7786,N,12222.4649,W,1,8,1.2,0.0,M,19.6,M,,*73
"
2025-07-09T08:10:05.663346,GPS,367000003,,,,,,"$GPRMC,081005.663,A,3747.7786,N,12222.4649,W,10.2,6.0,090725,0.0,E,N*2C
"
2025-07-09T08:10:06.663346,GPS,367000001,,,,,,"$GPGGA,081006.663,3747.2297,N,12223.3429,W,1,8,1.2,0.0,M,19.6,M,,*72
"
2025-07-09T08:10:06.663346,GPS,367000001,,,,,,"$GPRMC,081006.663,A,3747.2297,N,12223.3429,W,9.3,158.0,090725,0.0,E,N*1E
"
2025-07-09T08:10:06.663346,GPS,367000002,,,,,,"$GPGGA,081006.663,3749.8311,N,12228.2440,W,1,8,1.2,0.0,M,19.6,M,,*7C
"
2025-07-09T08:10:06.663346,GPS,367000002,,,,,,"$GPRMC,081006.663,A,3749.8311,N,12228.2440,W,5.1,65.0,090725,0.0,E,N*21
"
2025-07-09T08:10:06.663346,GPS,367000003,,,,,,"$GPGGA,081006.663,3747.7811,N,12222.4653,W,1,8,1.2,0.0,M,19.6,M,,*7A
"
2025-07-09T08:10:06.663346,GPS,367000003,,,,,,"$GPRMC,081006.663,A,3747.7811,N,12222.4653,W,10.1,6.0,090725,0.0,E,N*26
"
2025-07-09T08:10:07.663346,GPS,367000001,,,,,,"$GPGGA,081007.663,3747.2271,N,12223.3404,W,1,8,1.2,0.0,M,19.6,M,,*74
"
2025-07-09T08:10:07.663346,GPS,367000001,,,,,,"$GPRMC,081007.663,A,3747.2271,N,12223.3404,W,9.4,158.0,090725,0.0,E,N*1F
"
2025-07-09T08:10:07.663346,GPS,367000002,,,,,,"$GPGGA,081007.663,3749.8316,N,12228.2411,W,1,8,1.2,0.0,M,19.6,M,,*7E
"
2025-07-09T08:10:07.663346,GPS,367000002,,,,,,"$GPRMC,081007.663,A,3749.8316,N,12228.2411,W,5.1,65.0,090725,0.0,E,N*23
"
2025-07-09T08:10:07.663346,GPS,367000003,,,,,,"$GPGGA,081007.663,3747.7837,N,12222.4637,W,1,8,1.2,0.0,M,19.6,M,,*7D
"
2025-07-09T08:10:07.663346,GPS,367000003,,,,,,"$GPRMC,081007.663,A,3747.7837,N,12222.4637,W,10.1,6.0,090725,0.0,E,N*21
"
2025-07-09T08:10:08.663346,GPS,367000001,,,,,,"$GPGGA,081008.663,3747.2250,N,12223.3402,W,1,8,1.2,0.0,M,19.6,M,,*7E
"
2025-07-09T08:10:08.663346,GPS,367000001,,,,,,"$GPRMC,081008.663,A,3747.2250,N,12223.3402,W,9.2,158.0,090725,0.0,E,N*13
"
2025-07-09T08:10:08.663346,GPS,367000002,,,,,,"$GPGGA,081008.663,3749.8324,N,12228.2405,W,1,8,1.2,0.0,M,19.6,M,,*75
"
2025-07-09T08:10:08.663346,GPS,367000002,,,,,,"$GPRMC,081008.663,A,3749.8324,N,12228.2405,W,4.9,65.0,090725,0.0,E,N*21
"
2025-07-09T08:10:08.663346,GPS,367000003,,,,,,"$GPGGA,081008.663,3747.7867,N,12222.4643,W,1,8,1.2,0.0,M,19.6,M,,*74
"
2025-07-09T08:10:08.663346,GPS,367000003,,,,,,"$GPRMC,081008.663,A,3747.7867,N,12222.4643,W,9.9,6.0,090725,0.0,E,N*18
"
2025-07-09T08:10:09.663346,GPS,367000001,,,,,,"$GPGGA,081009.663,3747.2227,N,12223.3385,W,1,8,1.2,0.0,M,19.6,M,,*77
"
2025-07-09T08:10:09.663346,GPS,367000001,,,,,,"$GPRMC,081009.663,A,3747.2227,N,12223.3385,W,9.3,158.0,090725,0.0,E,N*1B
"
2025-07-09T08:10:09.663346,GPS,367000002,,,,,,"$GPGGA,081009.663,3749.8331,N,12228.2384,W,1,8,1.2,0.0,M,19.6,M,,*7E
"
2025-07-09T08:10:09.663346,GPS,367000002,,,,,,"$GPRMC,081009.663,A,3749.8331,N,12228.2384,W,5.0,65.0,090725,0.0,E,N*22
"
2025-07-09T08:10:09.663346,GPS,367000003,,,,,,"$GPGGA,081009.663,3747.7896,N,12222.4634,W,1,8,1.2,0.0,M,19.6,M,,*7B
"
2025-07-09T08:10:09.663346,GPS,367000003,,,,,,"$GPRMC,081009.663,A,3747.7896,N,12222.4634,W,10.0,6.0,090725,0.0,E,N*26
"
2025-07-09T08:10:10.663346,GPS,367000001,,,,,,"$GPGGA,081010.663,3747.2202,N,12223.3379,W,1,8,1.2,0.0,M,19.6,M,,*7B
"
2025-07-09T08:10:10.663346,GPS,367000001,,,,,,"$GPRMC,081010.663,A,3747.2202,N,12223.3379,W,9.6,158.0,090725,0.0,E,N*12
"
2025-07-09T08:10:10.663346,GPS,367000002,,,,,,"$GPGGA,081010.663,3749.8337,N,12228.2374,W,1,8,1.2,0.0,M,19.6,M,,*7F
"
2025-07-09T08:10:10.663346,GPS,367000002,,,,,,"$GPRMC,081010.663,A,3749.8337,N,12228.2374,W,5.3,65.0,090725,0.0,E,N*20
"
2025-07-09T08:10:10.663346,GPS,367000003,,,,,,"$GPGGA,081010.663,3747.7924,N,12222.4637,W,1,8,1.2,0.0,M,19.6,M,,*78
"
2025-07-09T08:10:10.663346,GPS,367000003,,,,,,"$GPRMC,081010.663,A,3747.7924,N,12222.4637,W,10.3,6.0,090725,0.0,E,N*26
"
2025-07-09T08:10:10.663346,AIS,367000001,1,37.78700369185223,-122.38896441332867,9.627071131541628,158,"!AIVDM,1,1,,A,15Mwqh@01PG?gnrEWkBV;4tD0000,0*41"
2025-07-09T08:10:10.663346,AIS,367000001,2,37.78700369185223,-122.38896441332867,9.627071131541628,158,"!AIVDM,1,1,,A,25Mwqh@01PG?gnrEWkBV;4tD0000,0*42"
2025-07-09T08:10:10.663346,AIS,367000001,3,37.78700369185223,-122.38896441332867,9.627071131541628,158,"!AIVDM,1,1,,A,35Mwqh@01PG?gnrEWkBV;4tD0000,0*43"
2025-07-09T08:10:10.663346,AIS,367000002,1,37.83056215528009,-122.47062350251242,5.333741105168408,65,"!AIVDM,1,1,,A,15MwqhP00mG?GslEaIHBRR2D0000,0*0D"
2025-07-09T08:10:10.663346,AIS,367000002,2,37.83056215528009,-122.47062350251242,5.333741105168408,65,"!AIVDM,1,1,,A,25MwqhP00mG?GslEaIHBRR2D0000,0*0E"
2025-07-09T08:10:10.663346,AIS,367000002,3,37.83056215528009,-122.47062350251242,5.333741105168408,65,"!AIVDM,1,1,,A,35MwqhP00mG?GslEaIHBRR2D0000,0*0F"
2025-07-09T08:10:10.663346,AIS,367000003,1,37.79653971406034,-122.37439513431899,10.330338424697848,6,"!AIVDM,1,1,,A,15Mwqhh01WG?l86E`9a0?0<D0000,0*1F"
2025-07-09T08:10:10.663346,AIS,367000003,2,37.79653971406034,-122.37439513431899,10.330338424697848,6,"!AIVDM,1,1,,A,25Mwqhh01WG?l86E`9a0?0<D0000,0*1C"
2025-07-09T08:10:10.663346,AIS,367000003,3,37.79653971406034,-122.37439513431899,10.330338424697848,6,"!AIVDM,1,1,,A,35Mwqhh01WG?l86E`9a0?0<D0000,0*1D"
2025-07-09T08:10:11.663346,GPS,367000001,,,,,,"$GPGGA,081011.663,3747.2181,N,12223.3363,W,1,8,1.2,0.0,M,19.6,M,,*79
"
2025-07-09T08:10:11.663346,GPS,367000001,,,,,,"$GPRMC,081011.663,A,3747.2181,N,12223.3363,W,9.4,158.0,090725,0.0,E,N*12
"
2025-07-09T08:10:11.663346,GPS,367000002,,,,,,"$GPGGA,081011.663,3749.8346,N,12228.2355,W,1,8,1.2,0.0,M,19.6,M,,*7B
"
2025-07-09T08:10:11.663346,GPS,367000002,,,,,,"$GPRMC,081011.663,A,3749.8346,N,12228.2355,W,5.1,65.0,090725,0.0,E,N*26
"
2025-07-09T08:10:11.663346,GPS,367000003,,,,,,"$GPGGA,081011.663,3747.7955,N,12222.4630,W,1,8,1.2,0.0,M,19.6,M,,*78
"
2025-07-09T08:10:11.663346,GPS,367000003,,,,,,"$GPRMC,081011.663,A,3747.7955,N,12222.4630,W,10.1,6.0,090725,0.0,E,N*24
"
2025-07-09T08:10:12.663346,GPS,367000001,,,,,,"$GPGGA,081012.663,3747.2164,N,12223.3351,W,1,8,1.2,0.0,M,19.6,M,,*70
"
2025-07-09T08:10:12.663346,GPS,367000001,,,,,,"$GPRMC,081012.663,A,3747.2164,N,12223.3351,W,9.2,158.0,090725,0.0,E,N*1D
"
2025-07-09T08:10:12.663346,GPS,367000002,,,,,,"$GPGGA,081012.663,3749.8359,N,12228.2339,W,1,8,1.2,0.0,M,19.6,M,,*7C
"
2025-07-09T08:10:12.663346,GPS,367000002,,,,,,"$GPRMC,081012.663,A,3749.8359,N,12228.2339,W,4.9,65.0,090725,0.0,E,N*28
"
2025-07-09T08:10:12.663346,GPS,367000003,,,,,,"$GPGGA,081012.663,3747.7989,N,12222.4626,W,1,8,1.2,0.0,M,19.6,M,,*7D
"
2025-07-09T08:10:12.663346,GPS,367000003,,,,,,"$GPRMC,081012.663,A,3747.7989,N,12222.4626,W,9.9,6.0,090725,0.0,E,N*11
"
2025-07-09T08:10:13.663346,GPS,367000001,,,,,,"$GPGGA,081013.663,3747.2147,N,12223.3335,W,1,8,1.2,0.0,M,19.6,M,,*72
"
2025-07-09T08:10:13.663346,GPS,367000001,,,,,,"$GPRMC,081013.663,A,3747.2147,N,12223.3335,W,9.5,158.0,090725,0.0,E,N*18
"
2025-07-09T08:10:13.663346,GPS,367000002,,,,,,"$GPGGA,081013.663,3749.8373,N,12228.2318,W,1,8,1.2,0.0,M,19.6,M,,*76
"
2025-07-09T08:10:13.663346,GPS,367000002,,,,,,"$GPRMC,081013.663,A,3749.8373,N,12228.2318,W,5.2,65.0,090725,0.0,E,N*28
"
2025-07-09T08:10:13.663346,GPS,367000003,,,,,,"$GPGGA,081013.663,3747.8025,N,12222.4619,W,1,8,1.2,0.0,M,19.6,M,,*70
"
2025-07-09T08:10:13.663346,GPS,367000003,,,,,,"$GPRMC,081013.663,A,3747.8025,N,12222.4619,W,10.2,6.0,090725,0.0,E,N*2F
"
2025-07-09T08:10:14.663346,GPS,367000001,,,,,,"$GPGGA,081014.663,3747.2136,N,12223.3321,W,1,8,1.2,0.0,M,19.6,M,,*76
"
2025-07-09T08:10:14.663346,GPS,367000001,,,,,,"$GPRMC,081014.663,A,3747.2136,N,12223.3321,W,9.4,158.0,090725,0.0,E,N*1D
"
2025-07-09T08:10:14.663346,GPS,367000002,,,,,,"$GPGGA,081014.663,3749.8392,N,12228.2301,W,1,8,1.2,0.0,M,19.6,M,,*76
"
2025-07-09T08:10:14.663346,GPS,367000002,,,,,,"$GPRMC,081014.663,A,3749.8392,N,12228.2301,W,5.1,65.0,090725,0.0,E,N*2B
"
2025-07-09T08:10:14.663346,GPS,367000003,,,,,,"$GPGGA,081014.663,3747.8066,N,12222.4614,W,1,8,1.2,0.0,M,19.6,M,,*7D
"
2025-07-09T08:10:14.663346,GPS,367000003,,,,,,"$GPRMC,081014.663,A,3747.8066,N,12222.4614,W,10.1,6.0,090725,0.0,E,N*21
"
2025-07-09T08:10:15.663346,GPS,367000001,,,,,,"$GPGGA,081015.663,3747.2113,N,12223.3300,W,1,8,1.2,0.0,M,19.6,M,,*73
"
2025-07-09T08:10:15.663346,GPS,367000001,,,,,,"$GPRMC,081015.663,A,3747.2113,N,12223.3300,W,9.3,158.0,090725,0.0,E,N*1F
"
2025-07-09T08:10:15.663346,GPS,367000002,,,,,,"$GPGGA,081015.663,3749.8398,N,12228.2276,W,1,8,1.2,0.0,M,19.6,M,,*7C
"
2025-07-09T08:10:15.663346,GPS,367000002,,,,,,"$GPRMC,081015.663,A,3749.8398,N,12228.2276,W,5.0,65.0,090725,0.0,E,N*20
"
2025-07-09T08:10:15.663346,GPS,367000003,,,,,,"$GPGGA,081015.663,3747.8094,N,12222.4601,W,1,8,1.2,0.0,M,19.6,M,,*75
"
2025-07-09T08:10:15.663346,GPS,367000003,,,,,,"$GPRMC,081015.663,A,3747.8094,N,12222.4601,W,10.0,6.0,090725,0.0,E,N*28
"
2025-07-09T08:10:16.663346,GPS,367000001,,,,,,"$GPGGA,081016.663,3747.2092,N,12223.3280,W,1,8,1.2,0.0,M,19.6,M,,*71
"
2025-07-09T08:10:16.663346,GPS,367000001,,,,,,"$GPRMC,081016.663,A,3747.2092,N,12223.3280,W,9.4,158.0,090725,0.0,E,N*1A
"
2025-07-09T08:10:16.663346,GPS,367000002,,,,,,"$GPGGA,081016.663,3749.8407,N,12228.2253,W,1,8,1.2,0.0,M,19.6,M,,*79
"
2025-07-09T08:10:16.663346,GPS,367000002,,,,,,"$GPRMC,081016.663,A,3749.8407,N,12228.2253,W,5.1,65.0,090725,0.0,E,N*24
"
2025-07-09T08:10:16.663346,GPS,367000003,,,,,,"$GPGGA,081016.663,3747.8125,N,12222.4590,W,1,8,1.2,0.0,M,19.6,M,,*76
"
2025-07-09T08:10:16.663346,GPS,367000003,,,,,,"$GPRMC,081016.663,A,3747.8125,N,12222.4590,W,10.1,6.0,090725,0.0,E,N*2A
"
2025-07-09T08:10:17.663346,GPS,367000001,,,,,,"$GPGGA,081017.663,3747.2058,N,12223.3266,W,1,8,1.2,0.0,M,19.6,M,,*7E
"
2025-07-09T08:10:17.663346,GPS,367000001,,,,,,"$GPRMC,081017.663,A,3747.2058,N,12223.3266,W,9.2,158.0,090725,0.0,E,N*13
"
2025-07-09T08:10:17.663346,GPS,367000002,,,,,,"$GPGGA,081017.663,3749.8403,N,12228.2235,W,1,8,1.2,0.0,M,19.6,M,,*7C
"
2025-07-09T08:10:17.663346,GPS,367000002,,,,,,"$GPRMC,081017.663,A,3749.8403,N,12228.2235,W,4.9,65.0,090725,0.0,E,N*28
"
2025-07-09T08:10:17.663346,GPS,367000003,,,,,,"$GPGGA,081017.663,3747.8142,N,12222.4585,W,1,8,1.2,0.0,M,19.6,M,,*72
"
2025-07-09T08:10:17.663346,GPS,367000003,,,,,,"$GPRMC,081017.663,A,3747.8142,N,12222.4585,W,9.9,6.0,090725,0.0,E,N*1E
"
2025-07-09T08:10:18.663346,GPS,367000001,,,,,,"$GPGGA,081018.663,3747.2030,N,12223.3249,W,1,8,1.2,0.0,M,19.6,M,,*72
"
2025-07-09T08:10:18.663346,GPS,367000001,,,,,,"$GPRMC,081018.663,A,3747.2030,N,12223.3249,W,9.4,158.0,090725,0.0,E,N*19
"
2025-07-09T08:10:18.663346,GPS,367000002,,,,,,"$GPGGA,081018.663,3749.8405,N,12228.2214,W,1,8,1.2,0.0,M,19.6,M,,*76
"
2025-07-09T08:10:18.663346,GPS,367000002,,,,,,"$GPRMC,081018.663,A,3749.8405,N,12228.2214,W,5.1,65.0,090725,0.0,E,N*2B
"
2025-07-09T08:10:18.663346,GPS,367000003,,,,,,"$GPGGA,081018.663,3747.8166,N,12222.4576,W,1,8,1.2,0.0,M,19.6,M,,*77
"
2025-07-09T08:10:18.663346,GPS,367000003,,,,,,"$GPRMC,081018.663,A,3747.8166,N,12222.4576,W,10.1,6.0,090725,0.0,E,N*2B
"
2025-07-09T08:10:19.663346,GPS,367000001,,,,,,"$GPGGA,081019.663,3747.2000,N,12223.3233,W,1,8,1.2,0.0,M,19.6,M,,*7D
"
2025-07-09T08:10:19.663346,GPS,367000001,,,,,,"$GPRMC,081019.663,A,3747.2000,N,12223.3233,W,9.5,158.0,090725,0.0,E,N*17
"
2025-07-09T08:10:19.663346,GPS,367000002,,,,,,"$GPGGA,081019.663,3749.8405,N,12228.2194,W,1,8,1.2,0.0,M,19.6,M,,*7C
"
2025-07-09T08:10:19.663346,GPS,367000002,,,,,,"$GPRMC,081019.663,A,3749.8405,N,12228.2194,W,5.2,65.0,090725,0.0,E,N*22
"
2025-07-09T08:10:19.663346,GPS,367000003,,,,,,"$GPGGA,081019.663,3747.8188,N,12222.4569,W,1,8,1.2,0.0,M,19.6,M,,*78
"
2025-07-09T08:10:19.663346,GPS,367000003,,,,,,"$GPRMC,081019.663,A,3747.8188,N,12222.4569,W,10.2,6.0,090725,0.0,E,N*27
"
2025-07-09T08:10:20.663346,GPS,367000001,,,,,,"$GPGGA,081020.663,3747.1967,N,12223.3218,W,1,8,1.2,0.0,M,19.6,M,,*75
"
2025-07-09T08:10:20.663346,GPS,367000001,,,,,,"$GPRMC,081020.663,A,3747.1967,N,12223.3218,W,9.3,158.0,090725,0.0,E,N*19
"
2025-07-09T08:10:20.663346,GPS,367000002,,,,,,"$GPGGA,081020.663,3749.8402,N,12228.2175,W,1,8,1.2,0.0,M,19.6,M,,*7E
"
2025-07-09T08:10:20.663346,GPS,367000002,,,,,,"$GPRMC,081020.663,A,3749.8402,N,12228.2175,W,5.0,65.0,090725,0.0,E,N*22
"
2025-07-09T08:10:20.663346,GPS,367000003,,,,,,"$GPGGA,081020.663,3747.8207,N,12222.4563,W,1,8,1.2,0.0,M,19.6,M,,*7C
"
2025-07-09T08:10:20.663346,GPS,367000003,,,,,,"$GPRMC,081020.663,A,3747.8207,N,12222.4563,W,10.0,6.0,090725,0.0,E,N*21
"
2025-07-09T08:10:20.663346,AIS,367000001,1,37.78661151413969,-122.38869681107909,9.298229802395491,158,"!AIVDM,1,1,,A,15Mwqh@01MG?gstEWjGn;4t`0000,0*5F"
2025-07-09T08:10:20.663346,AIS,367000001,2,37.78661151413969,-122.38869681107909,9.298229802395491,158,"!AIVDM,1,1,,A,25Mwqh@01MG?gstEWjGn;4t`0000,0*5C"
2025-07-09T08:10:20.663346,AIS,367000001,3,37.78661151413969,-122.38869681107909,9.298229802395491,158,"!AIVDM,1,1,,A,35Mwqh@01MG?gstEWjGn;4t`0000,0*5D"
2025-07-09T08:10:20.663346,AIS,367000001,18,37.78661151413969,-122.38869681107909,9.298229802395491,158,"!AIVDM,1,1,,A,B5Mwqh@0GEksvw5ItUuRi?:40000,0*3B"
2025-07-09T08:10:20.663346,AIS,367000001,19,37.78661151413969,-122.38869681107909,9.298229802395491,158,"!AIVDM,1,1,,A,C5Mwqh@0GEksvw5ItUuRi?:17OMa3CM;UwWACQvPR000S48C32RP,0*10"
2025-07-09T08:10:20.663346,AIS,367000002,1,37.8306700118618,-122.47029245494444,5.004899776022273,65,"!AIVDM,1,1,,A,15MwqhP00jG?H22EaI`RRR2`0000,0*06"
2025-07-09T08:10:20.663346,AIS,367000002,2,37.8306700118618,-122.47029245494444,5.004899776022273,65,"!AIVDM,1,1,,A,25MwqhP00jG?H22EaI`RRR2`0000,0*05"
2025-07-09T08:10:20.663346,AIS,367000002,3,37.8306700118618,-122.47029245494444,5.004899776022273,65,"!AIVDM,1,1,,A,35MwqhP00jG?H22EaI`RRR2`0000,0*04"
2025-07-09T08:10:20.663346,AIS,367000002,18,37.8306700118618,-122.47029245494444,5.004899776022273,65,"!AIVDM,1,1,,A,B5MwqhP0<Ukn0PUJFJ8``Pb40000,0*33"
2025-07-09T08:10:20.663346,AIS,367000002,19,37.8306700118618,-122.47029245494444,5.004899776022273,65,"!AIVDM,1,1,,A,C5MwqhP0<Ukn0PUJFJ8``Pb1a3MG;UvPT00000000000`:<>U4RP,0*78"
2025-07-09T08:10:20.663346,AIS,367000003,1,37.79701130314223,-122.37427107222564,10.001497095551711,6,"!AIVDM,1,1,,A,15Mwqhh01TG?l:JE`:gh?0<`0000,0*1B"
2025-07-09T08:10:20.663346,AIS,367000003,2,37.79701130314223,-122.37427107222564,10.001497095551711,6,"!AIVDM,1,1,,A,25Mwqhh01TG?l:JE`:gh?0<`0000,0*18"
2025-07-09T08:10:20.663346,AIS,367000003,3,37.79701130314223,-122.37427107222564,10.001497095551711,6,"!AIVDM,1,1,,A,35Mwqhh01TG?l:JE`:gh?0<`0000,0*19"
2025-07-09T08:10:20.663346,AIS,367000003,18,37.79701130314223,-122.37427107222564,10.001497095551711,6,"!AIVDM,1,1,,A,B5Mwqhh0I5ku2VUJ2ct3h3:40000,0*70"
2025-07-09T08:10:20.663346,AIS,367000003,19,37.79701130314223,-122.37427107222564,10.001497095551711,6,"!AIVDM,1,1,,A,C5Mwqhh0I5ku2VUJ2ct3h3:1=CWACM?we;WW;IvPV000?:06b32P,0*06"
2025-07-09T08:10:21.663346,GPS,367000001,,,,,,"$GPGGA,081021.663,3747.1938,N,12223.3203,W,1,8,1.2,0.0,M,19.6,M,,*74
"
2025-07-09T08:10:21.663346,GPS,367000001,,,,,,"$GPRMC,081021.663,A,3747.1938,N,12223.3203,W,9.3,158.0,090725,0.0,E,N*18
"
2025-07-09T08:10:21.663346,GPS,367000002,,,,,,"$GPGGA,081021.663,3749.8403,N,12228.2156,W,1,8,1.2,0.0,M,19.6,M,,*7F
"
2025-07-09T08:10:21.663346,GPS,367000002,,,,,,"$GPRMC,081021.663,A,3749.8403,N,12228.2156,W,5.0,65.0,090725,0.0,E,N*23
"
2025-07-09T08:10:21.663346,GPS,367000003,,,,,,"$GPGGA,081021.663,3747.8230,N,12222.4556,W,1,8,1.2,0.0,M,19.6,M,,*7F
"
2025-07-09T08:10:21.663346,GPS,367000003,,,,,,"$GPRMC,081021.663,A,3747.8230,N,12222.4556,W,10.0,6.0,090725,0.0,E,N*22
"
2025-07-09T08:10:22.663346,GPS,367000001,,,,,,"$GPGGA,081022.663,3747.1911,N,12223.3188,W,1,8,1.2,0.0,M,19.6,M,,*7C
"
2025-07-09T08:10:22.663346,GPS,367000001,,,,,,"$GPRMC,081022.663,A,3747.1911,N,12223.3188,W,9.4,158.0,090725,0.0,E,N*17
"
2025-07-09T08:10:22.663346,GPS,367000002,,,,,,"$GPGGA,081022.663,3749.8406,N,12228.2138,W,1,8,1.2,0.0,M,19.6,M,,*71
"
2025-07-09T08:10:22.663346,GPS,367000002,,,,,,"$GPRMC,081022.663,A,3749.8406,N,12228.2138,W,5.1,65.0,090725,0.0,E,N*2C
"
2025-07-09T08:10:22.663346,GPS,367000003,,,,,,"$GPGGA,081022.663,3747.8255,N,12222.4550,W,1,8,1.2,0.0,M,19.6,M,,*79
"
2025-07-09T08:10:22.663346,GPS,367000003,,,,,,"$GPRMC,081022.663,A,3747.8255,N,12222.4550,W,10.1,6.0,090725,0.0,E,N*25
"
2025-07-09T08:10:23.663346,GPS,367000001,,,,,,"$GPGGA,081023.663,3747.1882,N,12223.3173,W,1,8,1.2,0.0,M,19.6,M,,*72
"
2025-07-09T08:10:23.663346,GPS,367000001,,,,,,"$GPRMC,081023.663,A,3747.1882,N,12223.3173,W,9.5,158.0,090725,0.0,E,N*18
"
2025-07-09T08:10:23.663346,GPS,367000002,,,,,,"$GPGGA,081023.663,3749.8408,N,12228.2119,W,1,8,1.2,0.0,M,19.6,M,,*7D
"
2025-07-09T08:10:23.663346,GPS,367000002,,,,,,"$GPRMC,081023.663,A,3749.8408,N,12228.2119,W,5.2,65.0,090725,0.0,E,N*23
"
2025-07-09T08:10:23.663346,GPS,367000003,,,,,,"$GPGGA,081023.663,3747.8279,N,12222.4544,W,1,8,1.2,0.0,M,19.6,M,,*73
"
2025-07-09T08:10:23.663346,GPS,367000003,,,,,,"$GPRMC,081023.663,A,3747.8279,N,12222.4544,W,10.2,6.0,090725,0.0,E,N*2C
"
2025-07-09T08:10:24.663346,GPS,367000001,,,,,,"$GPGGA,081024.663,3747.1871,N,12223.3172,W,1,8,1.2,0.0,M,19.6,M,,*78
"
2025-07-09T08:10:24.663346,GPS,367000001,,,,,,"$GPRMC,081024.663,A,3747.1871,N,12223.3172,W,9.3,158.0,090725,0.0,E,N*14
"
2025-07-09T08:10:24.663346,GPS,367000002,,,,,,"$GPGGA,081024.663,3749.8427,N,12228.2114,W,1,8,1.2,0.0,M,19.6,M,,*7A
"
2025-07-09T08:10:24.663346,GPS,367000002,,,,,,"$GPRMC,081024.663,A,3749.8427,N,12228.2114,W,5.0,65.0,090725,0.0,E,N*26
"
2025-07-09T08:10:24.663346,GPS,367000003,,,,,,"$GPGGA,081024.663,3747.8320,N,12222.4551,W,1,8,1.2,0.0,M,19.6,M,,*7D
"
2025-07-09T08:10:24.663346,GPS,367000003,,,,,,"$GPRMC,081024.663,A,3747.8320,N,12222.4551,W,10.0,6.0,090725,0.0,E,N*20
"
2025-07-09T08:10:25.663346,GPS,367000001,,,,,,"$GPGGA,081025.663,3747.1845,N,12223.3160,W,1,8,1.2,0.0,M,19.6,M,,*7D
"
