!AIVDM,1,1,,A,15Mwqh@P1MG?gRHEWp16;4t`0000,0*16\n!AIVDM,1,1,,A,25Mwqh@P1MG?gRHEWp16;4t`0000,0*15\n!AIVDM,1,1,,A,35Mwqh@P1MG?gRHEWp16;4t`0000,0*14\n!AIVDM,2,1,1,A,55Mwqh@00003BG?A116>vsB6VrG;w>RW3u1400168@V6540HtOt;te?l,0*41\n!AIVDM,2,2,1,A,@00000000000008,2*5D\n!AIVDM,1,1,,A,B5Mwqh@0GEkspV5Iv0ARi?:40000,0*4F\n!AIVDM,1,1,,A,C5Mwqh@0GEkspV5Iv0ARi?:17OMa3CM;UwWACQvPR000S48C32RP,0*64\n!AIVDM,1,1,,A,H5MwqhB>vsB6VrG;w>RW3u140000,0*22\n!AIVDM,1,1,,A,H5MwqhE60000000=9Lu444B49QQ@0,2*0F\n!AIVDM,1,1,,A,15MwqhPP0jG?GQDEaH?BRR2`0000,0*32\n!AIVDM,1,1,,A,25MwqhPP0jG?GQDEaH?BRR2`0000,0*31\n!AIVDM,1,1,,A,35MwqhPP0jG?GQDEaH?BRR2`0000,0*30\n!AIVDM,2,1,2,A,55MwqhP00003BG?A11;B6rfG;u1800000000001@DHM:940HtSt;te?m,0*23\n!AIVDM,2,2,2,A,000000000000008,2*2E\n!AIVDM,1,1,,A,B5MwqhP0<UkmpE5JF3l``Pb40000,0*28\n!AIVDM,1,1,,A,C5MwqhP0<UkmpE5JF3l``Pb1a3MG;UvPT00000000000`:<>U4RP,0*63\n!AIVDM,1,1,,A,H5MwqhSB6rfG;u18000000000000,0*4B\n!AIVDM,1,1,,A,H5MwqhU@0000000=9Lu444U67BR@0,2*62\n!AIVDM,1,1,,A,15MwqhhP1TG?l12E`4>h?0<`0000,0*5F\n!AIVDM,1,1,,A,25MwqhhP1TG?l12E`4>h?0<`0000,0*5C\n!AIVDM,1,1,,A,35MwqhhP1TG?l12E`4>h?0<`0000,0*5D\n!AIVDM,2,1,3,A,55Mwqhh00003BG?A11>JW>RVrOwJG?>Fku1<000ND0=D640Ht?t;te?m,0*51\n!AIVDM,2,2,3,A,@00000000000008,2*5F\n!AIVDM,1,1,,A,B5Mwqhh0I5ku0@UJ13d3h3:40000,0*27\n!AIVDM,1,1,,A,C5Mwqhh0I5ku0@UJ13d3h3:1=CWACM?we;WW;IvPV000?:06b32P,0*51\n!AIVDM,1,1,,A,H5MwqhjJW>RVrOwJG?>Fku1<0000,0*26\n!AIVDM,1,1,,A,H5MwqhlN0000000=9Lu444m03E1P0,2*1B\n$GPGGA,080921.663,3747.3387,N,12223.4032,W,1,8,1.2,0.0,M,19.6,M,,*77
\n$GPRMC,080921.663,A,3747.3387,N,12223.4032,W,9.5,158.0,090725,0.0,E,N*1D
\n$GPGGA,080921.663,3749.8050,N,12228.3215,W,1,8,1.2,0.0,M,19.6,M,,*70
\n$GPRMC,080921.663,A,3749.8050,N,12228.3215,W,5.2,65.0,090725,0.0,E,N*2E
\n$GPGGA,080921.663,3747.6566,N,12222.4868,W,1,8,1.2,0.0,M,19.6,M,,*7D
\n$GPRMC,080921.663,A,3747.6566,N,12222.4868,W,10.2,6.0,090725,0.0,E,N*22
\n$GPGGA,080922.663,3747.3361,N,12223.4021,W,1,8,1.2,0.0,M,19.6,M,,*7E
\n$GPRMC,080922.663,A,3747.3361,N,12223.4021,W,9.4,158.0,090725,0.0,E,N*15
\n$GPGGA,080922.663,3749.8054,N,12228.3200,W,1,8,1.2,0.0,M,19.6,M,,*73
\n$GPRMC,080922.663,A,3749.8054,N,12228.3200,W,5.1,65.0,090725,0.0,E,N*2E
\n$GPGGA,080922.663,3747.6593,N,12222.4866,W,1,8,1.2,0.0,M,19.6,M,,*7A
\n$GPRMC,080922.663,A,3747.6593,N,12222.4866,W,10.1,6.0,090725,0.0,E,N*26
\n$GPGGA,080923.663,3747.3338,N,12223.4002,W,1,8,1.2,0.0,M,19.6,M,,*72
\n$GPRMC,080923.663,A,3747.3338,N,12223.4002,W,9.4,158.0,090725,0.0,E,N*19
\n$GPGGA,080923.663,3749.8062,N,12228.3177,W,1,8,1.2,0.0,M,19.6,M,,*74
\n$GPRMC,080923.663,A,3749.8062,N,12228.3177,W,5.1,65.0,090725,0.0,E,N*29
\n$GPGGA,080923.663,3747.6622,N,12222.4855,W,1,8,1.2,0.0,M,19.6,M,,*72
\n$GPRMC,080923.663,A,3747.6622,N,12222.4855,W,10.1,6.0,090725,0.0,E,N*2E
\n$GPGGA,080924.663,3747.3314,N,12223.3994,W,1,8,1.2,0.0,M,19.6,M,,*7A
\n$GPRMC,080924.663,A,3747.3314,N,12223.3994,W,9.5,158.0,090725,0.0,E,N*10
\n$GPGGA,080924.663,3749.8068,N,12228.3165,W,1,8,1.2,0.0,M,19.6,M,,*7A
\n$GPRMC,080924.663,A,3749.8068,N,12228.3165,W,5.2,65.0,090725,0.0,E,N*24
\n$GPGGA,080924.663,3747.6651,N,12222.4856,W,1,8,1.2,0.0,M,19.6,M,,*72
\n$GPRMC,080924.663,A,3747.6651,N,12222.4856,W,10.2,6.0,090725,0.0,E,N*2D
\n$GPGGA,080925.663,3747.3292,N,12223.3974,W,1,8,1.2,0.0,M,19.6,M,,*7A
\n$GPRMC,080925.663,A,3747.3292,N,12223.3974,W,9.1,158.0,090725,0.0,E,N*14
\n$GPGGA,080925.663,3749.8076,N,12228.3141,W,1,8,1.2,0.0,M,19.6,M,,*72
\n$GPRMC,080925.663,A,3749.8076,N,12228.3141,W,4.8,65.0,090725,0.0,E,N*27
\n$GPGGA,080925.663,3747.6679,N,12222.4844,W,1,8,1.2,0.0,M,19.6,M,,*7A
\n$GPRMC,080925.663,A,3747.6679,N,12222.4844,W,9.8,6.0,090725,0.0,E,N*17
\n$GPGGA,080926.663,3747.3268,N,12223.3958,W,1,8,1.2,0.0,M,19.6,M,,*72
\n$GPRMC,080926.663,A,3747.3268,N,12223.3958,W,9.3,158.0,090725,0.0,E,N*1E
\n$GPGGA,080926.663,3749.8081,N,12228.3122,W,1,8,1.2,0.0,M,19.6,M,,*7C
\n$GPRMC,080926.663,A,3749.8081,N,12228.3122,W,5.1,65.0,090725,0.0,E,N*21
\n$GPGGA,080926.663,3747.6706,N,12222.4837,W,1,8,1.2,0.0,M,19.6,M,,*74
\n$GPRMC,080926.663,A,3747.6706,N,12222.4837,W,10.0,6.0,090725,0.0,E,N*29
\n$GPGGA,080927.663,3747.3243,N,12223.3943,W,1,8,1.2,0.0,M,19.6,M,,*70
\n$GPRMC,080927.663,A,3747.3243,N,12223.3943,W,9.0,158.0,090725,0.0,E,N*1F
\n$GPGGA,080927.663,3749.8085,N,12228.3104,W,1,8,1.2,0.0,M,19.6,M,,*7D
\n$GPRMC,080927.663,A,3749.8085,N,12228.3104,W,4.8,65.0,090725,0.0,E,N*28
\n$GPGGA,080927.663,3747.6731,N,12222.4831,W,1,8,1.2,0.0,M,19.6,M,,*77
\n$GPRMC,080927.663,A,3747.6731,N,12222.4831,W,9.8,6.0,090725,0.0,E,N*1A
\n$GPGGA,080928.663,3747.3217,N,12223.3929,W,1,8,1.2,0.0,M,19.6,M,,*72
\n$GPRMC,080928.663,A,3747.3217,N,12223.3929,W,9.5,158.0,090725,0.0,E,N*18
\n$GPGGA,080928.663,3749.8089,N,12228.3085,W,1,8,1.2,0.0,M,19.6,M,,*76
\n$GPRMC,080928.663,A,3749.8089,N,12228.3085,W,5.2,65.0,090725,0.0,E,N*28
\n$GPGGA,080928.663,3747.6758,N,12222.4825,W,1,8,1.2,0.0,M,19.6,M,,*72
\n$GPRMC,080928.663,A,3747.6758,N,12222.4825,W,10.2,6.0,090725,0.0,E,N*2D
\n$GPGGA,080929.663,3747.3197,N,12223.3923,W,1,8,1.2,0.0,M,19.6,M,,*72
\n$GPRMC,080929.663,A,3747.3197,N,12223.3923,W,9.4,158.0,090725,0.0,E,N*19
\n$GPGGA,080929.663,3749.8100,N,12228.3076,W,1,8,1.2,0.0,M,19.6,M,,*7B
\n$GPRMC,080929.663,A,3749.8100,N,12228.3076,W,5.1,65.0,090725,0.0,E,N*26
\n$GPGGA,080929.663,3747.6791,N,12222.4828,W,1,8,1.2,0.0,M,19.6,M,,*7B
\n$GPRMC,080929.663,A,3747.6791,N,12222.4828,W,10.1,6.0,090725,0.0,E,N*27
\n$GPGGA,080930.663,3747.3164,N,12223.3926,W,1,8,1.2,0.0,M,19.6,M,,*73
\n$GPRMC,080930.663,A,3747.3164,N,12223.3926,W,9.5,158.0,090725,0.0,E,N*19
\n$GPGGA,080930.663,3749.8097,N,12228.3075,W,1,8,1.2,0.0,M,19.6,M,,*7F
\n$GPRMC,080930.663,A,3749.8097,N,12228.3075,W,5.2,65.0,090725,0.0,E,N*21
\n$GPGGA,080930.663,3747.6810,N,12222.4840,W,1,8,1.2,0.0,M,19.6,M,,*7B
\n$GPRMC,080930.663,A,3747.6810,N,12222.4840,W,10.2,6.0,090725,0.0,E,N*24
\n!AIVDM,1,1,,A,15Mwqh@01OG?gUlEWo36;4tt0000,0*5E\n!AIVDM,1,1,,A,25Mwqh@01OG?gUlEWo36;4tt0000,0*5D\n!AIVDM,1,1,,A,35Mwqh@01OG?gUlEWo36;4tt0000,0*5C\n!AIVDM,1,1,,A,15MwqhP00lG?GUrEaHLBRR2t0000,0*01\n!AIVDM,1,1,,A,25MwqhP00lG?GUrEaHLBRR2t0000,0*02\n!AIVDM,1,1,,A,35MwqhP00lG?GUrEaHLBRR2t0000,0*03\n!AIVDM,1,1,,A,15Mwqhh01VG?l1hE`5BP?0<t0000,0*36\n!AIVDM,1,1,,A,25Mwqhh01VG?l1hE`5BP?0<t0000,0*35\n!AIVDM,1,1,,A,35Mwqhh01VG?l1hE`5BP?0<t0000,0*34\n$GPGGA,080931.663,3747.3135,N,12223.3909,W,1,8,1.2,0.0,M,19.6,M,,*7B
\n$GPRMC,080931.663,A,3747.3135,N,12223.3909,W,9.2,158.0,090725,0.0,E,N*16
\n$GPGGA,080931.663,3749.8097,N,12228.3054,W,1,8,1.2,0.0,M,19.6,M,,*7D
\n$GPRMC,080931.663,A,3749.8097,N,12228.3054,W,4.9,65.0,090725,0.0,E,N*29
\n$GPGGA,080931.663,3747.6831,N,12222.4831,W,1,8,1.2,0.0,M,19.6,M,,*7F
\n$GPRMC,080931.663,A,3747.6831,N,12222.4831,W,9.9,6.0,090725,0.0,E,N*13
\n$GPGGA,080932.663,3747.3103,N,12223.3891,W,1,8,1.2,0.0,M,19.6,M,,*7D
\n$GPRMC,080932.663,A,3747.3103,N,12223.3891,W,9.5,158.0,090725,0.0,E,N*17
\n$GPGGA,080932.663,3749.8096,N,12228.3032,W,1,8,1.2,0.0,M,19.6,M,,*7F
\n$GPRMC,080932.663,A,3749.8096,N,12228.3032,W,5.2,65.0,090725,0.0,E,N*21
\n$GPGGA,080932.663,3747.6852,N,12222.4822,W,1,8,1.2,0.0,M,19.6,M,,*7B
\n$GPRMC,080932.663,A,3747.6852,N,12222.4822,W,10.2,6.0,090725,0.0,E,N*24
\n$GPGGA,080933.663,3747.3079,N,12223.3881,W,1,8,1.2,0.0,M,19.6,M,,*71
\n$GPRMC,080933.663,A,3747.3079,N,12223.3881,W,9.1,158.0,090725,0.0,E,N*1F
\n$GPGGA,080933.663,3749.8101,N,12228.3019,W,1,8,1.2,0.0,M,19.6,M,,*78
\n$GPRMC,080933.663,A,3749.8101,N,12228.3019,W,4.8,65.0,090725,0.0,E,N*2D
\n$GPGGA,080933.663,3747.6879,N,12222.4820,W,1,8,1.2,0.0,M,19.6,M,,*71
\n$GPRMC,080933.663,A,3747.6879,N,12222.4820,W,9.8,6.0,090725,0.0,E,N*1C
\n$GPGGA,080934.663,3747.3060,N,12223.3865,W,1,8,1.2,0.0,M,19.6,M,,*74
\n$GPRMC,080934.663,A,3747.3060,N,12223.3865,W,9.4,158.0,090725,0.0,E,N*1F
\n$GPGGA,080934.663,3749.8112,N,12228.2999,W,1,8,1.2,0.0,M,19.6,M,,*7D
\n$GPRMC,080934.663,A,3749.8112,N,12228.2999,W,5.1,65.0,090725,0.0,E,N*20
\n$GPGGA,080934.663,3747.6912,N,12222.4813,W,1,8,1.2,0.0,M,19.6,M,,*7A
\n$GPRMC,080934.663,A,3747.6912,N,12222.4813,W,10.1,6.0,090725,0.0,E,N*26
\n$GPGGA,080935.663,3747.3039,N,12223.3850,W,1,8,1.2,0.0,M,19.6,M,,*7F
\n$GPRMC,080935.663,A,3747.3039,N,12223.3850,W,9.4,158.0,090725,0.0,E,N*14
\n$GPGGA,080935.663,3749.8122,N,12228.2980,W,1,8,1.2,0.0,M,19.6,M,,*77
\n$GPRMC,080935.663,A,3749.8122,N,12228.2980,W,5.1,65.0,090725,0.0,E,N*2A
\n$GPGGA,080935.663,3747.6943,N,12222.4806,W,1,8,1.2,0.0,M,19.6,M,,*7B
\n$GPRMC,080935.663,A,3747.6943,N,12222.4806,W,10.1,6.0,090725,0.0,E,N*27
\n$GPGGA,080936.663,3747.3011,N,12223.3840,W,1,8,1.2,0.0,M,19.6,M,,*77
\n$GPRMC,080936.663,A,3747.3011,N,12223.3840,W,9.2,158.0,090725,0.0,E,N*1A
\n$GPGGA,080936.663,3749.8123,N,12228.2967,W,1,8,1.2,0.0,M,19.6,M,,*7C
\n$GPRMC,080936.663,A,3749.8123,N,12228.2967,W,4.9,65.0,090725,0.0,E,N*28
\n$GPGGA,080936.663,3747.6966,N,12222.4805,W,1,8,1.2,0.0,M,19.6,M,,*7C
\n$GPRMC,080936.663,A,3747.6966,N,12222.4805,W,9.9,6.0,090725,0.0,E,N*10
\n$GPGGA,080937.663,3747.2986,N,12223.3814,W,1,8,1.2,0.0,M,19.6,M,,*71
\n$GPRMC,080937.663,A,3747.2986,N,12223.3814,W,9.4,158.0,090725,0.0,E,N*1A
\n$GPGGA,080937.663,3749.8128,N,12228.2936,W,1,8,1.2,0.0,M,19.6,M,,*72
\n$GPRMC,080937.663,A,3749.8128,N,12228.2936,W,5.1,65.0,090725,0.0,E,N*2F
\n$GPGGA,080937.663,3747.6993,N,12222.4787,W,1,8,1.2,0.0,M,19.6,M,,*72
\n$GPRMC,080937.663,A,3747.6993,N,12222.4787,W,10.1,6.0,090725,0.0,E,N*2E
\n$GPGGA,080938.663,3747.2955,N,12223.3797,W,1,8,1.2,0.0,M,19.6,M,,*74
\n$GPRMC,080938.663,A,3747.2955,N,12223.3797,W,9.2,158.0,090725,0.0,E,N*19
\n$GPGGA,080938.663,3749.8127,N,12228.2916,W,1,8,1.2,0.0,M,19.6,M,,*70
\n$GPRMC,080938.663,A,3749.8127,N,12228.2916,W,4.9,65.0,090725,0.0,E,N*24
\n$GPGGA,080938.663,3747.7014,N,12222.4779,W,1,8,1.2,0.0,M,19.6,M,,*7B
\n$GPRMC,080938.663,A,3747.7014,N,12222.4779,W,9.9,6.0,090725,0.0,E,N*17
\n$GPGGA,080939.663,3747.2934,N,12223.3780,W,1,8,1.2,0.0,M,19.6,M,,*74
\n$GPRMC,080939.663,A,3747.2934,N,12223.3780,W,9.6,158.0,090725,0.0,E,N*1D
\n$GPGGA,080939.663,3749.8136,N,12228.2894,W,1,8,1.2,0.0,M,19.6,M,,*7A
\n$GPRMC,080939.663,A,3749.8136,N,12228.2894,W,5.3,65.0,090725,0.0,E,N*25
\n$GPGGA,080939.663,3747.7045,N,12222.4770,W,1,8,1.2,0.0,M,19.6,M,,*77
\n$GPRMC,080939.663,A,3747.7045,N,12222.4770,W,10.3,6.0,090725,0.0,E,N*29
\n$GPGGA,080940.663,3747.2908,N,12223.3775,W,1,8,1.2,0.0,M,19.6,M,,*7F
\n$GPRMC,080940.663,A,3747.2908,N,12223.3775,W,9.6,158.0,090725,0.0,E,N*16
\n$GPGGA,080940.663,3749.8142,N,12228.2886,W,1,8,1.2,0.0,M,19.6,M,,*74
\n$GPRMC,080940.663,A,3749.8142,N,12228.2886,W,5.3,65.0,090725,0.0,E,N*2B
\n$GPGGA,080940.663,3747.7073,N,12222.4775,W,1,8,1.2,0.0,M,19.6,M,,*79
\n$GPRMC,080940.663,A,3747.7073,N,12222.4775,W,10.3,6.0,090725,0.0,E,N*27
\n!AIVDM,1,1,,A,15Mwqh@01PG?gbREWn36;4u@0000,0*7C\n!AIVDM,1,1,,A,25Mwqh@01PG?gbREWn36;4u@0000,0*7F\n!AIVDM,1,1,,A,35Mwqh@01PG?gbREWn36;4u@0000,0*7E\n!AIVDM,1,1,,A,15MwqhP00mG?GclEaHWRRR3@0000,0*16\n!AIVDM,1,1,,A,25MwqhP00mG?GclEaHWRRR3@0000,0*15\n!AIVDM,1,1,,A,35MwqhP00mG?GclEaHWRRR3@0000,0*14\n!AIVDM,1,1,,A,15Mwqhh01WG?l3jE`6D@?0=@0000,0*17\n!AIVDM,1,1,,A,25Mwqhh01WG?l3jE`6D@?0=@0000,0*14\n!AIVDM,1,1,,A,35Mwqhh01WG?l3jE`6D@?0=@0000,0*15\n$GPGGA,080941.663,3747.2890,N,12223.3772,W,1,8,1.2,0.0,M,19.6,M,,*79
\n$GPRMC,080941.663,A,3747.2890,N,12223.3772,W,9.2,158.0,090725,0.0,E,N*14
\n$GPGGA,080941.663,3749.8153,N,12228.2879,W,1,8,1.2,0.0,M,19.6,M,,*75
\n$GPRMC,080941.663,A,3749.8153,N,12228.2879,W,4.9,65.0,090725,0.0,E,N*21
\n$GPGGA,080941.663,3747.7106,N,12222.4780,W,1,8,1.2,0.0,M,19.6,M,,*71
\n$GPRMC,080941.663,A,3747.7106,N,12222.4780,W,9.9,6.0,090725,0.0,E,N*1D
\n$GPGGA,080942.663,3747.2868,N,12223.3762,W,1,8,1.2,0.0,M,19.6,M,,*7C
\n$GPRMC,080942.663,A,3747.2868,N,12223.3762,W,9.3,158.0,090725,0.0,E,N*10
\n$GPGGA,080942.663,3749.8161,N,12228.2865,W,1,8,1.2,0.0,M,19.6,M,,*7A
\n$GPRMC,080942.663,A,3749.8161,N,12228.2865,W,5.1,65.0,090725,0.0,E,N*27
\n$GPGGA,080942.663,3747.7136,N,12222.4778,W,1,8,1.2,0.0,M,19.6,M,,*76
\n$GPRMC,080942.663,A,3747.7136,N,12222.4778,W,10.0,6.0,090725,0.0,E,N*2B
\n$GPGGA,080943.663,3747.2847,N,12223.3735,W,1,8,1.2,0.0,M,19.6,M,,*72
\n$GPRMC,080943.663,A,3747.2847,N,12223.3735,W,9.5,158.0,090725,0.0,E,N*18
\n$GPGGA,080943.663,3749.8170,N,12228.2834,W,1,8,1.2,0.0,M,19.6,M,,*7F
\n$GPRMC,080943.663,A,3749.8170,N,12228.2834,W,5.2,65.0,090725,0.0,E,N*21
\n$GPGGA,080943.663,3747.7167,N,12222.4761,W,1,8,1.2,0.0,M,19.6,M,,*7B
\n$GPRMC,080943.663,A,3747.7167,N,12222.4761,W,10.2,6.0,090725,0.0,E,N*24
\n$GPGGA,080944.663,3747.2819,N,12223.3726,W,1,8,1.2,0.0,M,19.6,M,,*7C
\n$GPRMC,080944.663,A,3747.2819,N,12223.3726,W,9.5,158.0,090725,0.0,E,N*16
\n$GPGGA,080944.663,3749.8173,N,12228.2821,W,1,8,1.2,0.0,M,19.6,M,,*7F
\n$GPRMC,080944.663,A,3749.8173,N,12228.2821,W,5.2,65.0,090725,0.0,E,N*21
\n$GPGGA,080944.663,3747.7192,N,12222.4760,W,1,8,1.2,0.0,M,19.6,M,,*77
\n$GPRMC,080944.663,A,3747.7192,N,12222.4760,W,10.2,6.0,090725,0.0,E,N*28
\n$GPGGA,080945.663,3747.2801,N,12223.3717,W,1,8,1.2,0.0,M,19.6,M,,*76
\n$GPRMC,080945.663,A,3747.2801,N,12223.3717,W,9.2,158.0,090725,0.0,E,N*1B
\n$GPGGA,080945.663,3749.8184,N,12228.2809,W,1,8,1.2,0.0,M,19.6,M,,*7C
\n$GPRMC,080945.663,A,3749.8184,N,12228.2809,W,4.9,65.0,090725,0.0,E,N*28
\n$GPGGA,080945.663,3747.7224,N,12222.4760,W,1,8,1.2,0.0,M,19.6,M,,*78
\n$GPRMC,080945.663,A,3747.7224,N,12222.4760,W,9.9,6.0,090725,0.0,E,N*14
\n$GPGGA,080946.663,3747.2781,N,12223.3710,W,1,8,1.2,0.0,M,19.6,M,,*75
\n$GPRMC,080946.663,A,3747.2781,N,12223.3710,W,9.3,158.0,090725,0.0,E,N*19
\n$GPGGA,080946.663,3749.8195,N,12228.2797,W,1,8,1.2,0.0,M,19.6,M,,*77
\n$GPRMC,080946.663,A,3749.8195,N,12228.2797,W,5.0,65.0,090725,0.0,E,N*2B
\n$GPGGA,080946.663,3747.7257,N,12222.4761,W,1,8,1.2,0.0,M,19.6,M,,*7E
\n$GPRMC,080946.663,A,3747.7257,N,12222.4761,W,10.0,6.0,090725,0.0,E,N*23
\n$GPGGA,080947.663,3747.2746,N,12223.3704,W,1,8,1.2,0.0,M,19.6,M,,*7A
\n$GPRMC,080947.663,A,3747.2746,N,12223.3704,W,9.3,158.0,090725,0.0,E,N*16
\n$GPGGA,080947.663,3749.8189,N,12228.2788,W,1,8,1.2,0.0,M,19.6,M,,*75
\n$GPRMC,080947.663,A,3749.8189,N,12228.2788,W,5.0,65.0,090725,0.0,E,N*29
\n$GPGGA,080947.663,3747.7273,N,12222.4764,W,1,8,1.2,0.0,M,19.6,M,,*7C
\n$GPRMC,080947.663,A,3747.7273,N,12222.4764,W,10.0,6.0,090725,0.0,E,N*21
\n$GPGGA,080948.663,3747.2725,N,12223.3685,W,1,8,1.2,0.0,M,19.6,M,,*78
\n$GPRMC,080948.663,A,3747.2725,N,12223.3685,W,9.2,158.0,090725,0.0,E,N*15
\n$GPGGA,080948.663,3749.8198,N,12228.2765,W,1,8,1.2,0.0,M,19.6,M,,*79
\n$GPRMC,080948.663,A,3749.8198,N,12228.2765,W,4.9,65.0,090725,0.0,E,N*2D
\n$GPGGA,080948.663,3747.7303,N,12222.4753,W,1,8,1.2,0.0,M,19.6,M,,*71
\n$GPRMC,080948.663,A,3747.7303,N,12222.4753,W,9.9,6.0,090725,0.0,E,N*1D
\n$GPGGA,080949.663,3747.2703,N,12223.3671,W,1,8,1.2,0.0,M,19.6,M,,*76
\n$GPRMC,080949.663,A,3747.2703,N,12223.3671,W,9.3,158.0,090725,0.0,E,N*1A
\n$GPGGA,080949.663,3749.8205,N,12228.2748,W,1,8,1.2,0.0,M,19.6,M,,*70
\n$GPRMC,080949.663,A,3749.8205,N,12228.2748,W,5.0,65.0,090725,0.0,E,N*2C
\n$GPGGA,080949.663,3747.7332,N,12222.4748,W,1,8,1.2,0.0,M,19.6,M,,*78
\n$GPRMC,080949.663,A,3747.7332,N,12222.4748,W,10.0,6.0,090725,0.0,E,N*25
\n$GPGGA,080950.663,3747.2684,N,12223.3657,W,1,8,1.2,0.0,M,19.6,M,,*74
\n$GPRMC,080950.663,A,3747.2684,N,12223.3657,W,9.6,158.0,090725,0.0,E,N*1D
\n$GPGGA,080950.663,3749.8217,N,12228.2730,W,1,8,1.2,0.0,M,19.6,M,,*74
\n$GPRMC,080950.663,A,3749.8217,N,12228.2730,W,5.3,65.0,090725,0.0,E,N*2B
\n$GPGGA,080950.663,3747.7366,N,12222.4743,W,1,8,1.2,0.0,M,19.6,M,,*7A
\n$GPRMC,080950.663,A,3747.7366,N,12222.4743,W,10.3,6.0,090725,0.0,E,N*24
\n!AIVDM,1,1,,A,15Mwqh@01PG?gf>EWm;6;4uT0000,0*0B\n!AIVDM,1,1,,A,25Mwqh@01PG?gf>EWm;6;4uT0000,0*08\n!AIVDM,1,1,,A,35Mwqh@01PG?gf>EWm;6;4uT0000,0*09\n!AIVDM,1,1,,A,B5Mwqh@0H5kssSUIuBiRi?I40000,0*7C\n!AIVDM,1,1,,A,C5Mwqh@0H5kssSUIuBiRi?I17OMa3CM;UwWACQvPR000S48C32RP,0*57\n!AIVDM,1,1,,A,15MwqhP00mG?GhdEaHrBRR3T0000,0*34\n!AIVDM,1,1,,A,25MwqhP00mG?GhdEaHrBRR3T0000,0*37\n!AIVDM,1,1,,A,35MwqhP00mG?GhdEaHrBRR3T0000,0*36\n!AIVDM,1,1,,A,B5MwqhP0=Ekmt;5JF>T``Pq40000,0*65\n!AIVDM,1,1,,A,C5MwqhP0=Ekmt;5JF>T``Pq1a3MG;UvPT00000000000`:<>U4RP,0*2E\n!AIVDM,1,1,,A,15Mwqhh01WG?l4jE`7MP?0=T0000,0*1C\n!AIVDM,1,1,,A,25Mwqhh01WG?l4jE`7MP?0=T0000,0*1F\n!AIVDM,1,1,,A,35Mwqhh01WG?l4jE`7MP?0=T0000,0*1E\n!AIVDM,1,1,,A,B5Mwqhh0Imku1<UJ1oH3h3I40000,0*01\n!AIVDM,1,1,,A,C5Mwqhh0Imku1<UJ1oH3h3I1=CWACM?we;WW;IvPV000?:06b32P,0*77\n$GPGGA,080951.663,3747.2665,N,12223.3643,W,1,8,1.2,0.0,M,19.6,M,,*7F
\n$GPRMC,080951.663,A,3747.2665,N,12223.3643,W,9.1,158.0,090725,0.0,E,N*11
\n$GPGGA,080951.663,3749.8228,N,12228.2712,W,1,8,1.2,0.0,M,19.6,M,,*79
\n$GPRMC,080951.663,A,3749.8228,N,12228.2712,W,4.8,65.0,090725,0.0,E,N*2C
\n$GPGGA,080951.663,3747.7399,N,12222.4737,W,1,8,1.2,0.0,M,19.6,M,,*78
\n$GPRMC,080951.663,A,3747.7399,N,12222.4737,W,9.8,6.0,090725,0.0,E,N*15
\n$GPGGA,080952.663,3747.2641,N,12223.3618,W,1,8,1.2,0.0,M,19.6,M,,*74
\n$GPRMC,080952.663,A,3747.2641,N,12223.3618,W,9.6,158.0,090725,0.0,E,N*1D
\n$GPGGA,080952.663,3749.8234,N,12228.2683,W,1,8,1.2,0.0,M,19.6,M,,*7E
\n$GPRMC,080952.663,A,3749.8234,N,12228.2683,W,5.3,65.0,090725,0.0,E,N*21
\n$GPGGA,080952.663,3747.7427,N,12222.4721,W,1,8,1.2,0.0,M,19.6,M,,*7E
\n$GPRMC,080952.663,A,3747.7427,N,12222.4721,W,10.3,6.0,090725,0.0,E,N*20
\n$GPGGA,080953.663,3747.2626,N,12223.3606,W,1,8,1.2,0.0,M,19.6,M,,*7B
\n$GPRMC,080953.663,A,3747.2626,N,12223.3606,W,9.3,158.0,090725,0.0,E,N*17
\n$GPGGA,080953.663,3749.8249,N,12228.2667,W,1,8,1.2,0.0,M,19.6,M,,*7F
\n$GPRMC,080953.663,A,3749.8249,N,12228.2667,W,5.0,65.0,090725,0.0,E,N*23
\n$GPGGA,080953.663,3747.7464,N,12222.4717,W,1,8,1.2,0.0,M,19.6,M,,*7D
\n$GPRMC,080953.663,A,3747.7464,N,12222.4717,W,10.0,6.0,090725,0.0,E,N*20
\n$GPGGA,080954.663,3747.2596,N,12223.3594,W,1,8,1.2,0.0,M,19.6,M,,*7C
\n$GPRMC,080954.663,A,3747.2596,N,12223.3594,W,9.2,158.0,090725,0.0,E,N*11
\n$GPGGA,080954.663,3749.8248,N,12228.2652,W,1,8,1.2,0.0,M,19.6,M,,*7F
\n$GPRMC,080954.663,A,3749.8248,N,12228.2652,W,4.9,65.0,090725,0.0,E,N*2B
\n$GPGGA,080954.663,3747.7485,N,12222.4714,W,1,8,1.2,0.0,M,19.6,M,,*76
\n$GPRMC,080954.663,A,3747.7485,N,12222.4714,W,9.9,6.0,090725,0.0,E,N*1A
\n$GPGGA,080955.663,3747.2576,N,12223.3577,W,1,8,1.2,0.0,M,19.6,M,,*7E
\n$GPRMC,080955.663,A,3747.2576,N,12223.3577,W,9.6,158.0,090725,0.0,E,N*17
\n$GPGGA,080955.663,3749.8259,N,12228.2631,W,1,8,1.2,0.0,M,19.6,M,,*7B
\n$GPRMC,080955.663,A,3749.8259,N,12228.2631,W,5.3,65.0,090725,0.0,E,N*24
\n$GPGGA,080955.663,3747.7518,N,12222.4706,W,1,8,1.2,0.0,M,19.6,M,,*71
\n$GPRMC,080955.663,A,3747.7518,N,12222.4706,W,10.3,6.0,090725,0.0,E,N*2F
\n$GPGGA,080956.663,3747.2557,N,12223.3562,W,1,8,1.2,0.0,M,19.6,M,,*7A
\n$GPRMC,080956.663,A,3747.2557,N,12223.3562,W,8.9,158.0,090725,0.0,E,N*1D
\n$GPGGA,080956.663,3749.8269,N,12228.2613,W,1,8,1.2,0.0,M,19.6,M,,*7B
\n$GPRMC,080956.663,A,3749.8269,N,12228.2613,W,4.6,65.0,090725,0.0,E,N*20
\n$GPGGA,080956.663,3747.7549,N,12222.4699,W,1,8,1.2,0.0,M,19.6,M,,*71
\n$GPRMC,080956.663,A,3747.7549,N,12222.4699,W,9.6,6.0,090725,0.0,E,N*12
\n$GPGGA,080957.663,3747.2530,N,12223.3550,W,1,8,1.2,0.0,M,19.6,M,,*7B
\n$GPRMC,080957.663,A,3747.2530,N,12223.3550,W,9.2,158.0,090725,0.0,E,N*16
\n$GPGGA,080957.663,3749.8271,N,12228.2597,W,1,8,1.2,0.0,M,19.6,M,,*7C
\n$GPRMC,080957.663,A,3749.8271,N,12228.2597,W,4.9,65.0,090725,0.0,E,N*28
\n$GPGGA,080957.663,3747.7572,N,12222.4696,W,1,8,1.2,0.0,M,19.6,M,,*77
\n$GPRMC,080957.663,A,3747.7572,N,12222.4696,W,9.9,6.0,090725,0.0,E,N*1B
\n$GPGGA,080958.663,3747.2499,N,12223.3540,W,1,8,1.2,0.0,M,19.6,M,,*77
\n$GPRMC,080958.663,A,3747.2499,N,12223.3540,W,9.7,158.0,090725,0.0,E,N*1F
\n$GPGGA,080958.663,3749.8271,N,12228.2583,W,1,8,1.2,0.0,M,19.6,M,,*76
\n$GPRMC,080958.663,A,3749.8271,N,12228.2583,W,5.4,65.0,090725,0.0,E,N*2E
\n$GPGGA,080958.663,3747.7595,N,12222.4695,W,1,8,1.2,0.0,M,19.6,M,,*72
\n$GPRMC,080958.663,A,3747.7595,N,12222.4695,W,10.4,6.0,090725,0.0,E,N*2B
\n$GPGGA,080959.663,3747.2471,N,12223.3530,W,1,8,1.2,0.0,M,19.6,M,,*77
\n$GPRMC,080959.663,A,3747.2471,N,12223.3530,W,9.6,158.0,090725,0.0,E,N*1E
\n$GPGGA,080959.663,3749.8275,N,12228.2568,W,1,8,1.2,0.0,M,19.6,M,,*76
\n$GPRMC,080959.663,A,3749.8275,N,12228.2568,W,5.3,65.0,090725,0.0,E,N*29
\n$GPGGA,080959.663,3747.7620,N,12222.4693,W,1,8,1.2,0.0,M,19.6,M,,*78
\n$GPRMC,080959.663,A,3747.7620,N,12222.4693,W,10.3,6.0,090725,0.0,E,N*26
\n$GPGGA,081000.663,3747.2440,N,12223.3516,W,1,8,1.2,0.0,M,19.6,M,,*75
\n$GPRMC,081000.663,A,3747.2440,N,12223.3516,W,9.4,158.0,090725,0.0,E,N*1E
\n$GPGGA,081000.663,3749.8273,N,12228.2550,W,1,8,1.2,0.0,M,19.6,M,,*7F
\n$GPRMC,081000.663,A,3749.8273,N,12228.2550,W,5.1,65.0,090725,0.0,E,N*22
\n$GPGGA,081000.663,3747.7641,N,12222.4688,W,1,8,1.2,0.0,M,19.6,M,,*71
\n$GPRMC,081000.663,A,3747.7641,N,12222.4688,W,10.1,6.0,090725,0.0,E,N*2D
\n!AIVDM,1,1,,A,15Mwqh@01NG?gj`EWl>6;4t00000,0*26\n!AIVDM,1,1,,A,25Mwqh@01NG?gj`EWl>6;4t00000,0*25\n!AIVDM,1,1,,A,35Mwqh@01NG?gj`EWl>6;4t00000,0*24\n!AIVDM,1,1,,A,15MwqhP00kG?GnDEaI8BRR200000,0*3A\n!AIVDM,1,1,,A,25MwqhP00kG?GnDEaI8BRR200000,0*39\n!AIVDM,1,1,,A,35MwqhP00kG?GnDEaI8BRR200000,0*38\n!AIVDM,1,1,,A,15Mwqhh01UG?l6PE`8R@?0<00000,0*43\n!AIVDM,1,1,,A,25Mwqhh01UG?l6PE`8R@?0<00000,0*40\n!AIVDM,1,1,,A,35Mwqhh01UG?l6PE`8R@?0<00000,0*41\n$GPGGA,081001.663,3747.2422,N,12223.3504,W,1,8,1.2,0.0,M,19.6,M,,*73
\n$GPRMC,081001.663,A,3747.2422,N,12223.3504,W,9.1,158.0,090725,0.0,E,N*1D
\n$GPGGA,081001.663,3749.8284,N,12228.2535,W,1,8,1.2,0.0,M,19.6,M,,*75
\n$GPRMC,081001.663,A,3749.8284,N,12228.2535,W,4.8,65.0,090725,0.0,E,N*20
\n$GPGGA,081001.663,3747.7673,N,12222.4684,W,1,8,1.2,0.0,M,19.6,M,,*7D
\n$GPRMC,081001.663,A,3747.7673,N,12222.4684,W,9.8,6.0,090725,0.0,E,N*10
\n$GPGGA,081002.663,3747.2398,N,12223.3483,W,1,8,1.2,0.0,M,19.6,M,,*78
\n$GPRMC,081002.663,A,3747.2398,N,12223.3483,W,9.8,158.0,090725,0.0,E,N*1F
\n$GPGGA,081002.663,3749.8292,N,12228.2509,W,1,8,1.2,0.0,M,19.6,M,,*7E
\n$GPRMC,081002.663,A,3749.8292,N,12228.2509,W,5.5,65.0,090725,0.0,E,N*27
\n$GPGGA,081002.663,3747.7704,N,12222.4672,W,1,8,1.2,0.0,M,19.6,M,,*76
\n$GPRMC,081002.663,A,3747.7704,N,12222.4672,W,10.5,6.0,090725,0.0,E,N*2E
\n$GPGGA,081003.663,3747.2374,N,12223.3469,W,1,8,1.2,0.0,M,19.6,M,,*7F
\n$GPRMC,081003.663,A,3747.2374,N,12223.3469,W,9.1,158.0,090725,0.0,E,N*11
\n$GPGGA,081003.663,3749.8297,N,12228.2492,W,1,8,1.2,0.0,M,19.6,M,,*79
\n$GPRMC,081003.663,A,3749.8297,N,12228.2492,W,4.8,65.0,090725,0.0,E,N*2C
\n$GPGGA,081003.663,3747.7730,N,12222.4667,W,1,8,1.2,0.0,M,19.6,M,,*74
\n$GPRMC,081003.663,A,3747.7730,N,12222.4667,W,9.8,6.0,090725,0.0,E,N*19
\n$GPGGA,081004.663,3747.2339,N,12223.3450,W,1,8,1.2,0.0,M,19.6,M,,*7B
\n$GPRMC,081004.663,A,3747.2339,N,12223.3450,W,9.7,158.0,090725,0.0,E,N*13
\n$GPGGA,081004.663,3749.8293,N,12228.2469,W,1,8,1.2,0.0,M,19.6,M,,*7E
\n$GPRMC,081004.663,A,3749.8293,N,12228.2469,W,5.4,65.0,090725,0.0,E,N*26
\n$GPGGA,081004.663,3747.7749,N,12222.4657,W,1,8,1.2,0.0,M,19.6,M,,*7E
\n$GPRMC,081004.663,A,3747.7749,N,12222.4657,W,10.4,6.0,090725,0.0,E,N*27
\n$GPGGA,081005.663,3747.2324,N,12223.3434,W,1,8,1.2,0.0,M,19.6,M,,*74
\n$GPRMC,081005.663,A,3747.2324,N,12223.3434,W,9.5,158.0,090725,0.0,E,N*1E
\n$GPGGA,081005.663,3749.8309,N,12228.2448,W,1,8,1.2,0.0,M,19.6,M,,*7E
\n$GPRMC,081005.663,A,3749.8309,N,12228.2448,W,5.2,65.0,090725,0.0,E,N*20
\n$GPGGA,081005.663,3747.7786,N,12222.4649,W,1,8,1.2,0.0,M,19.6,M,,*73
\n$GPRMC,081005.663,A,3747.7786,N,12222.4649,W,10.2,6.0,090725,0.0,E,N*2C
\n$GPGGA,081006.663,3747.2297,N,12223.3429,W,1,8,1.2,0.0,M,19.6,M,,*72
\n$GPRMC,081006.663,A,3747.2297,N,12223.3429,W,9.3,158.0,090725,0.0,E,N*1E
\n$GPGGA,081006.663,3749.8311,N,12228.2440,W,1,8,1.2,0.0,M,19.6,M,,*7C
\n$GPRMC,081006.663,A,3749.8311,N,12228.2440,W,5.1,65.0,090725,0.0,E,N*21
\n$GPGGA,081006.663,3747.7811,N,12222.4653,W,1,8,1.2,0.0,M,19.6,M,,*7A
\n$GPRMC,081006.663,A,3747.7811,N,12222.4653,W,10.1,6.0,090725,0.0,E,N*26
\n$GPGGA,081007.663,3747.2271,N,12223.3404,W,1,8,1.2,0.0,M,19.6,M,,*74
\n$GPRMC,081007.663,A,3747.2271,N,12223.3404,W,9.4,158.0,090725,0.0,E,N*1F
\n$GPGGA,081007.663,3749.8316,N,12228.2411,W,1,8,1.2,0.0,M,19.6,M,,*7E
\n$GPRMC,081007.663,A,3749.8316,N,12228.2411,W,5.1,65.0,090725,0.0,E,N*23
\n$GPGGA,081007.663,3747.7837,N,12222.4637,W,1,8,1.2,0.0,M,19.6,M,,*7D
\n$GPRMC,081007.663,A,3747.7837,N,12222.4637,W,10.1,6.0,090725,0.0,E,N*21
\n$GPGGA,081008.663,3747.2250,N,12223.3402,W,1,8,1.2,0.0,M,19.6,M,,*7E
\n$GPRMC,081008.663,A,3747.2250,N,12223.3402,W,9.2,158.0,090725,0.0,E,N*13
\n$GPGGA,081008.663,3749.8324,N,12228.2405,W,1,8,1.2,0.0,M,19.6,M,,*75
\n$GPRMC,081008.663,A,3749.8324,N,12228.2405,W,4.9,65.0,090725,0.0,E,N*21
\n$GPGGA,081008.663,3747.7867,N,12222.4643,W,1,8,1.2,0.0,M,19.6,M,,*74
\n$GPRMC,081008.663,A,3747.7867,N,12222.4643,W,9.9,6.0,090725,0.0,E,N*18
\n$GPGGA,081009.663,3747.2227,N,12223.3385,W,1,8,1.2,0.0,M,19.6,M,,*77
\n$GPRMC,081009.663,A,3747.2227,N,12223.3385,W,9.3,158.0,090725,0.0,E,N*1B
\n$GPGGA,081009.663,3749.8331,N,12228.2384,W,1,8,1.2,0.0,M,19.6,M,,*7E
\n$GPRMC,081009.663,A,3749.8331,N,12228.2384,W,5.0,65.0,090725,0.0,E,N*22
\n$GPGGA,081009.663,3747.7896,N,12222.4634,W,1,8,1.2,0.0,M,19.6,M,,*7B
\n$GPRMC,081009.663,A,3747.7896,N,12222.4634,W,10.0,6.0,090725,0.0,E,N*26
\n$GPGGA,081010.663,3747.2202,N,12223.3379,W,1,8,1.2,0.0,M,19.6,M,,*7B
\n$GPRMC,081010.663,A,3747.2202,N,12223.3379,W,9.6,158.0,090725,0.0,E,N*12
\n$GPGGA,081010.663,3749.8337,N,12228.2374,W,1,8,1.2,0.0,M,19.6,M,,*7F
\n$GPRMC,081010.663,A,3749.8337,N,12228.2374,W,5.3,65.0,090725,0.0,E,N*20
\n$GPGGA,081010.663,3747.7924,N,12222.4637,W,1,8,1.2,0.0,M,19.6,M,,*78
\n$GPRMC,081010.663,A,3747.7924,N,12222.4637,W,10.3,6.0,090725,0.0,E,N*26
\n!AIVDM,1,1,,A,15Mwqh@01PG?gnrEWkBV;4tD0000,0*41\n!AIVDM,1,1,,A,25Mwqh@01PG?gnrEWkBV;4tD0000,0*42\n!AIVDM,1,1,,A,35Mwqh@01PG?gnrEWkBV;4tD0000,0*43\n!AIVDM,1,1,,A,15MwqhP00mG?GslEaIHBRR2D0000,0*0D\n!AIVDM,1,1,,A,25MwqhP00mG?GslEaIHBRR2D0000,0*0E\n!AIVDM,1,1,,A,35MwqhP00mG?GslEaIHBRR2D0000,0*0F\n!AIVDM,1,1,,A,15Mwqhh01WG?l86E`9a0?0<D0000,0*1F\n!AIVDM,1,1,,A,25Mwqhh01WG?l86E`9a0?0<D0000,0*1C\n!AIVDM,1,1,,A,35Mwqhh01WG?l86E`9a0?0<D0000,0*1D\n$GPGGA,081011.663,3747.2181,N,12223.3363,W,1,8,1.2,0.0,M,19.6,M,,*79
\n$GPRMC,081011.663,A,3747.2181,N,12223.3363,W,9.4,158.0,090725,0.0,E,N*12
\n$GPGGA,081011.663,3749.8346,N,12228.2355,W,1,8,1.2,0.0,M,19.6,M,,*7B
\n$GPRMC,081011.663,A,3749.8346,N,12228.2355,W,5.1,65.0,090725,0.0,E,N*26
\n$GPGGA,081011.663,3747.7955,N,12222.4630,W,1,8,1.2,0.0,M,19.6,M,,*78
\n$GPRMC,081011.663,A,3747.7955,N,12222.4630,W,10.1,6.0,090725,0.0,E,N*24
\n$GPGGA,081012.663,3747.2164,N,12223.3351,W,1,8,1.2,0.0,M,19.6,M,,*70
\n$GPRMC,081012.663,A,3747.2164,N,12223.3351,W,9.2,158.0,090725,0.0,E,N*1D
\n$GPGGA,081012.663,3749.8359,N,12228.2339,W,1,8,1.2,0.0,M,19.6,M,,*7C
\n$GPRMC,081012.663,A,3749.8359,N,12228.2339,W,4.9,65.0,090725,0.0,E,N*28
\n$GPGGA,081012.663,3747.7989,N,12222.4626,W,1,8,1.2,0.0,M,19.6,M,,*7D
\n$GPRMC,081012.663,A,3747.7989,N,12222.4626,W,9.9,6.0,090725,0.0,E,N*11
\n$GPGGA,081013.663,3747.2147,N,12223.3335,W,1,8,1.2,0.0,M,19.6,M,,*72
\n$GPRMC,081013.663,A,3747.2147,N,12223.3335,W,9.5,158.0,090725,0.0,E,N*18
\n$GPGGA,081013.663,3749.8373,N,12228.2318,W,1,8,1.2,0.0,M,19.6,M,,*76
\n$GPRMC,081013.663,A,3749.8373,N,12228.2318,W,5.2,65.0,090725,0.0,E,N*28
\n$GPGGA,081013.663,3747.8025,N,12222.4619,W,1,8,1.2,0.0,M,19.6,M,,*70
\n$GPRMC,081013.663,A,3747.8025,N,12222.4619,W,10.2,6.0,090725,0.0,E,N*2F
\n$GPGGA,081014.663,3747.2136,N,12223.3321,W,1,8,1.2,0.0,M,19.6,M,,*76
\n$GPRMC,081014.663,A,3747.2136,N,12223.3321,W,9.4,158.0,090725,0.0,E,N*1D
\n$GPGGA,081014.663,3749.8392,N,12228.2301,W,1,8,1.2,0.0,M,19.6,M,,*76
\n$GPRMC,081014.663,A,3749.8392,N,12228.2301,W,5.1,65.0,090725,0.0,E,N*2B
\n$GPGGA,081014.663,3747.8066,N,12222.4614,W,1,8,1.2,0.0,M,19.6,M,,*7D
\n$GPRMC,081014.663,A,3747.8066,N,12222.4614,W,10.1,6.0,090725,0.0,E,N*21
\n$GPGGA,081015.663,3747.2113,N,12223.3300,W,1,8,1.2,0.0,M,19.6,M,,*73
\n$GPRMC,081015.663,A,3747.2113,N,12223.3300,W,9.3,158.0,090725,0.0,E,N*1F
\n$GPGGA,081015.663,3749.8398,N,12228.2276,W,1,8,1.2,0.0,M,19.6,M,,*7C
\n$GPRMC,081015.663,A,3749.8398,N,12228.2276,W,5.0,65.0,090725,0.0,E,N*20
\n$GPGGA,081015.663,3747.8094,N,12222.4601,W,1,8,1.2,0.0,M,19.6,M,,*75
\n$GPRMC,081015.663,A,3747.8094,N,12222.4601,W,10.0,6.0,090725,0.0,E,N*28
\n$GPGGA,081016.663,3747.2092,N,12223.3280,W,1,8,1.2,0.0,M,19.6,M,,*71
\n$GPRMC,081016.663,A,3747.2092,N,12223.3280,W,9.4,158.0,090725,0.0,E,N*1A
\n$GPGGA,081016.663,3749.8407,N,12228.2253,W,1,8,1.2,0.0,M,19.6,M,,*79
\n$GPRMC,081016.663,A,3749.8407,N,12228.2253,W,5.1,65.0,090725,0.0,E,N*24
\n$GPGGA,081016.663,3747.8125,N,12222.4590,W,1,8,1.2,0.0,M,19.6,M,,*76
\n$GPRMC,081016.663,A,3747.8125,N,12222.4590,W,10.1,6.0,090725,0.0,E,N*2A
\n$GPGGA,081017.663,3747.2058,N,12223.3266,W,1,8,1.2,0.0,M,19.6,M,,*7E
\n$GPRMC,081017.663,A,3747.2058,N,12223.3266,W,9.2,158.0,090725,0.0,E,N*13
\n$GPGGA,081017.663,3749.8403,N,12228.2235,W,1,8,1.2,0.0,M,19.6,M,,*7C
\n$GPRMC,081017.663,A,3749.8403,N,12228.2235,W,4.9,65.0,090725,0.0,E,N*28
\n$GPGGA,081017.663,3747.8142,N,12222.4585,W,1,8,1.2,0.0,M,19.6,M,,*72
\n$GPRMC,081017.663,A,3747.8142,N,12222.4585,W,9.9,6.0,090725,0.0,E,N*1E
\n$GPGGA,081018.663,3747.2030,N,12223.3249,W,1,8,1.2,0.0,M,19.6,M,,*72
\n$GPRMC,081018.663,A,3747.2030,N,12223.3249,W,9.4,158.0,090725,0.0,E,N*19
\n$GPGGA,081018.663,3749.8405,N,12228.2214,W,1,8,1.2,0.0,M,19.6,M,,*76
\n$GPRMC,081018.663,A,3749.8405,N,12228.2214,W,5.1,65.0,090725,0.0,E,N*2B
\n$GPGGA,081018.663,3747.8166,N,12222.4576,W,1,8,1.2,0.0,M,19.6,M,,*77
\n$GPRMC,081018.663,A,3747.8166,N,12222.4576,W,10.1,6.0,090725,0.0,E,N*2B
\n$GPGGA,081019.663,3747.2000,N,12223.3233,W,1,8,1.2,0.0,M,19.6,M,,*7D
\n$GPRMC,081019.663,A,3747.2000,N,12223.3233,W,9.5,158.0,090725,0.0,E,N*17
\n$GPGGA,081019.663,3749.8405,N,12228.2194,W,1,8,1.2,0.0,M,19.6,M,,*7C
\n$GPRMC,081019.663,A,3749.8405,N,12228.2194,W,5.2,65.0,090725,0.0,E,N*22
\n$GPGGA,081019.663,3747.8188,N,12222.4569,W,1,8,1.2,0.0,M,19.6,M,,*78
\n$GPRMC,081019.663,A,3747.8188,N,12222.4569,W,10.2,6.0,090725,0.0,E,N*27
\n$GPGGA,081020.663,3747.1967,N,12223.3218,W,1,8,1.2,0.0,M,19.6,M,,*75
\n$GPRMC,081020.663,A,3747.1967,N,12223.3218,W,9.3,158.0,090725,0.0,E,N*19
\n$GPGGA,081020.663,3749.8402,N,12228.2175,W,1,8,1.2,0.0,M,19.6,M,,*7E
\n$GPRMC,081020.663,A,3749.8402,N,12228.2175,W,5.0,65.0,090725,0.0,E,N*22
\n$GPGGA,081020.663,3747.8207,N,12222.4563,W,1,8,1.2,0.0,M,19.6,M,,*7C
\n$GPRMC,081020.663,A,3747.8207,N,12222.4563,W,10.0,6.0,090725,0.0,E,N*21
\n!AIVDM,1,1,,A,15Mwqh@01MG?gstEWjGn;4t`0000,0*5F\n!AIVDM,1,1,,A,25Mwqh@01MG?gstEWjGn;4t`0000,0*5C\n!AIVDM,1,1,,A,35Mwqh@01MG?gstEWjGn;4t`0000,0*5D\n!AIVDM,1,1,,A,B5Mwqh@0GEksvw5ItUuRi?:40000,0*3B\n!AIVDM,1,1,,A,C5Mwqh@0GEksvw5ItUuRi?:17OMa3CM;UwWACQvPR000S48C32RP,0*10\n!AIVDM,1,1,,A,15MwqhP00jG?H22EaI`RRR2`0000,0*06\n!AIVDM,1,1,,A,25MwqhP00jG?H22EaI`RRR2`0000,0*05\n!AIVDM,1,1,,A,35MwqhP00jG?H22EaI`RRR2`0000,0*04\n!AIVDM,1,1,,A,B5MwqhP0<Ukn0PUJFJ8``Pb40000,0*33\n!AIVDM,1,1,,A,C5MwqhP0<Ukn0PUJFJ8``Pb1a3MG;UvPT00000000000`:<>U4RP,0*78\n!AIVDM,1,1,,A,15Mwqhh01TG?l:JE`:gh?0<`0000,0*1B\n!AIVDM,1,1,,A,25Mwqhh01TG?l:JE`:gh?0<`0000,0*18\n!AIVDM,1,1,,A,35Mwqhh01TG?l:JE`:gh?0<`0000,0*19\n!AIVDM,1,1,,A,B5Mwqhh0I5ku2VUJ2ct3h3:40000,0*70\n!AIVDM,1,1,,A,C5Mwqhh0I5ku2VUJ2ct3h3:1=CWACM?we;WW;IvPV000?:06b32P,0*06\n$GPGGA,081021.663,3747.1938,N,12223.3203,W,1,8,1.2,0.0,M,19.6,M,,*74
\n$GPRMC,081021.663,A,3747.1938,N,12223.3203,W,9.3,158.0,090725,0.0,E,N*18
\n$GPGGA,081021.663,3749.8403,N,12228.2156,W,1,8,1.2,0.0,M,19.6,M,,*7F
\n$GPRMC,081021.663,A,3749.8403,N,12228.2156,W,5.0,65.0,090725,0.0,E,N*23
\n$GPGGA,081021.663,3747.8230,N,12222.4556,W,1,8,1.2,0.0,M,19.6,M,,*7F
\n$GPRMC,081021.663,A,3747.8230,N,12222.4556,W,10.0,6.0,090725,0.0,E,N*22
\n$GPGGA,081022.663,3747.1911,N,12223.3188,W,1,8,1.2,0.0,M,19.6,M,,*7C
\n$GPRMC,081022.663,A,3747.1911,N,12223.3188,W,9.4,158.0,090725,0.0,E,N*17
\n$GPGGA,081022.663,3749.8406,N,12228.2138,W,1,8,1.2,0.0,M,19.6,M,,*71
\n$GPRMC,081022.663,A,3749.8406,N,12228.2138,W,5.1,65.0,090725,0.0,E,N*2C
\n$GPGGA,081022.663,3747.8255,N,12222.4550,W,1,8,1.2,0.0,M,19.6,M,,*79
\n$GPRMC,081022.663,A,3747.8255,N,12222.4550,W,10.1,6.0,090725,0.0,E,N*25
\n$GPGGA,081023.663,3747.1882,N,12223.3173,W,1,8,1.2,0.0,M,19.6,M,,*72
\n$GPRMC,081023.663,A,3747.1882,N,12223.3173,W,9.5,158.0,090725,0.0,E,N*18
\n$GPGGA,081023.663,3749.8408,N,12228.2119,W,1,8,1.2,0.0,M,19.6,M,,*7D
\n$GPRMC,081023.663,A,3749.8408,N,12228.2119,W,5.2,65.0,090725,0.0,E,N*23
\n$GPGGA,081023.663,3747.8279,N,12222.4544,W,1,8,1.2,0.0,M,19.6,M,,*73
\n$GPRMC,081023.663,A,3747.8279,N,12222.4544,W,10.2,6.0,090725,0.0,E,N*2C
\n$GPGGA,081024.663,3747.1871,N,12223.3172,W,1,8,1.2,0.0,M,19.6,M,,*78
\n$GPRMC,081024.663,A,3747.1871,N,12223.3172,W,9.3,158.0,090725,0.0,E,N*14
\n$GPGGA,081024.663,3749.8427,N,12228.2114,W,1,8,1.2,0.0,M,19.6,M,,*7A
\n$GPRMC,081024.663,A,3749.8427,N,12228.2114,W,5.0,65.0,090725,0.0,E,N*26
\n$GPGGA,081024.663,3747.8320,N,12222.4551,W,1,8,1.2,0.0,M,19.6,M,,*7D
\n$GPRMC,081024.663,A,3747.8320,N,12222.4551,W,10.0,6.0,090725,0.0,E,N*20
\n$GPGGA,081025.663,3747.1845,N,12223.3160,W,1,8,1.2,0.0,M,19.6,M,,*7D
\n$GPRMC,081025.663,A,3747.1845,N,12223.3160,W,9.5,158.0,090725,0.0,E,N*17
\n$GPGGA,081025.663,3749.8432,N,12228.2098,W,1,8,1.2,0.0,M,19.6,M,,*7A
\n$GPRMC,081025.663,A,3749.8432,N,12228.2098,W,5.2,65.0,090725,0.0,E,N*24
\n$GPGGA,081025.663,3747.8346,N,12222.4548,W,1,8,1.2,0.0,M,19.6,M,,*74
\n$GPRMC,081025.663,A,3747.8346,N,12222.4548,W,10.2,6.0,090725,0.0,E,N*2B
\n$GPGGA,081026.663,3747.1820,N,12223.3134,W,1,8,1.2,0.0,M,19.6,M,,*7C
\n$GPRMC,081026.663,A,3747.1820,N,12223.3134,W,9.7,158.0,090725,0.0,E,N*14
\n$GPGGA,081026.663,3749.8438,N,12228.2067,W,1,8,1.2,0.0,M,19.6,M,,*73
\n$GPRMC,081026.663,A,3749.8438,N,12228.2067,W,5.4,65.0,090725,0.0,E,N*2B
\n$GPGGA,081026.663,3747.8375,N,12222.4531,W,1,8,1.2,0.0,M,19.6,M,,*79
\n$GPRMC,081026.663,A,3747.8375,N,12222.4531,W,10.4,6.0,090725,0.0,E,N*20
\n$GPGGA,081027.663,3747.1798,N,12223.3125,W,1,8,1.2,0.0,M,19.6,M,,*71
\n$GPRMC,081027.663,A,3747.1798,N,12223.3125,W,9.2,158.0,090725,0.0,E,N*1C
\n$GPGGA,081027.663,3749.8446,N,12228.2054,W,1,8,1.2,0.0,M,19.6,M,,*7B
\n$GPRMC,081027.663,A,3749.8446,N,12228.2054,W,5.0,65.0,090725,0.0,E,N*27
\n$GPGGA,081027.663,3747.8404,N,12222.4530,W,1,8,1.2,0.0,M,19.6,M,,*78
\n$GPRMC,081027.663,A,3747.8404,N,12222.4530,W,10.0,6.0,090725,0.0,E,N*25
\n$GPGGA,081028.663,3747.1775,N,12223.3114,W,1,8,1.2,0.0,M,19.6,M,,*7F
\n$GPRMC,081028.663,A,3747.1775,N,12223.3114,W,9.2,158.0,090725,0.0,E,N*12
\n$GPGGA,081028.663,3749.8452,N,12228.2040,W,1,8,1.2,0.0,M,19.6,M,,*74
\n$GPRMC,081028.663,A,3749.8452,N,12228.2040,W,4.9,65.0,090725,0.0,E,N*20
\n$GPGGA,081028.663,3747.8432,N,12222.4528,W,1,8,1.2,0.0,M,19.6,M,,*7B
\n$GPRMC,081028.663,A,3747.8432,N,12222.4528,W,9.9,6.0,090725,0.0,E,N*17
\n$GPGGA,081029.663,3747.1738,N,12223.3090,W,1,8,1.2,0.0,M,19.6,M,,*7A
\n$GPRMC,081029.663,A,3747.1738,N,12223.3090,W,9.4,158.0,090725,0.0,E,N*11
\n$GPGGA,081029.663,3749.8445,N,12228.2012,W,1,8,1.2,0.0,M,19.6,M,,*74
\n$GPRMC,081029.663,A,3749.8445,N,12228.2012,W,5.1,65.0,090725,0.0,E,N*29
\n$GPGGA,081029.663,3747.8447,N,12222.4512,W,1,8,1.2,0.0,M,19.6,M,,*71
\n$GPRMC,081029.663,A,3747.8447,N,12222.4512,W,10.1,6.0,090725,0.0,E,N*2D
\n$GPGGA,081030.663,3747.1725,N,12223.3084,W,1,8,1.2,0.0,M,19.6,M,,*7B
\n$GPRMC,081030.663,A,3747.1725,N,12223.3084,W,9.3,158.0,090725,0.0,E,N*17
\n$GPGGA,081030.663,3749.8462,N,12228.2002,W,1,8,1.2,0.0,M,19.6,M,,*78
\n$GPRMC,081030.663,A,3749.8462,N,12228.2002,W,5.0,65.0,090725,0.0,E,N*24
\n$GPGGA,081030.663,3747.8485,N,12222.4515,W,1,8,1.2,0.0,M,19.6,M,,*70
\n$GPRMC,081030.663,A,3747.8485,N,12222.4515,W,10.0,6.0,090725,0.0,E,N*2D
\n!AIVDM,1,1,,A,15Mwqh@01MG?h08EWiKF;4tt0000,0*6C\n!AIVDM,1,1,,A,25Mwqh@01MG?h08EWiKF;4tt0000,0*6F\n!AIVDM,1,1,,A,35Mwqh@01MG?h08EWiKF;4tt0000,0*6E\n!AIVDM,1,1,,A,15MwqhP00jG?H7LEaIoRRR2t0000,0*66\n!AIVDM,1,1,,A,25MwqhP00jG?H7LEaIoRRR2t0000,0*65\n!AIVDM,1,1,,A,35MwqhP00jG?H7LEaIoRRR2t0000,0*64\n!AIVDM,1,1,,A,15Mwqhh01TG?l;rE`;m@?0<t0000,0*15\n!AIVDM,1,1,,A,25Mwqhh01TG?l;rE`;m@?0<t0000,0*16\n!AIVDM,1,1,,A,35Mwqhh01TG?l;rE`;m@?0<t0000,0*17\n$GPGGA,081031.663,3747.1720,N,12223.3076,W,1,8,1.2,0.0,M,19.6,M,,*72
\n$GPRMC,081031.663,A,3747.1720,N,12223.3076,W,9.4,158.0,090725,0.0,E,N*19
\n$GPGGA,081031.663,3749.8487,N,12228.1991,W,1,8,1.2,0.0,M,19.6,M,,*72
\n$GPRMC,081031.663,A,3749.8487,N,12228.1991,W,5.1,65.0,090725,0.0,E,N*2F
\n$GPGGA,081031.663,3747.8532,N,12222.4516,W,1,8,1.2,0.0,M,19.6,M,,*7F
\n$GPRMC,081031.663,A,3747.8532,N,12222.4516,W,10.1,6.0,090725,0.0,E,N*23
\n$GPGGA,081032.663,3747.1693,N,12223.3062,W,1,8,1.2,0.0,M,19.6,M,,*7D
\n$GPRMC,081032.663,A,3747.1693,N,12223.3062,W,9.0,158.0,090725,0.0,E,N*12
\n$GPGGA,081032.663,3749.8489,N,12228.1973,W,1,8,1.2,0.0,M,19.6,M,,*73
\n$GPRMC,081032.663,A,3749.8489,N,12228.1973,W,4.7,65.0,090725,0.0,E,N*29
\n$GPGGA,081032.663,3747.8556,N,12222.4510,W,1,8,1.2,0.0,M,19.6,M,,*78
\n$GPRMC,081032.663,A,3747.8556,N,12222.4510,W,9.7,6.0,090725,0.0,E,N*1A
\n$GPGGA,081033.663,3747.1676,N,12223.3051,W,1,8,1.2,0.0,M,19.6,M,,*77
\n$GPRMC,081033.663,A,3747.1676,N,12223.3051,W,9.5,158.0,090725,0.0,E,N*1D
\n$GPGGA,081033.663,3749.8503,N,12228.1958,W,1,8,1.2,0.0,M,19.6,M,,*78
\n$GPRMC,081033.663,A,3749.8503,N,12228.1958,W,5.2,65.0,090725,0.0,E,N*26
\n$GPGGA,081033.663,3747.8592,N,12222.4508,W,1,8,1.2,0.0,M,19.6,M,,*78
\n$GPRMC,081033.663,A,3747.8592,N,12222.4508,W,10.2,6.0,090725,0.0,E,N*27
\n$GPGGA,081034.663,3747.1651,N,12223.3032,W,1,8,1.2,0.0,M,19.6,M,,*70
\n$GPRMC,081034.663,A,3747.1651,N,12223.3032,W,9.0,158.0,090725,0.0,E,N*1F
\n$GPGGA,081034.663,3749.8506,N,12228.1936,W,1,8,1.2,0.0,M,19.6,M,,*72
\n$GPRMC,081034.663,A,3749.8506,N,12228.1936,W,4.7,65.0,090725,0.0,E,N*28
\n$GPGGA,081034.663,3747.8616,N,12222.4497,W,1,8,1.2,0.0,M,19.6,M,,*77
\n$GPRMC,081034.663,A,3747.8616,N,12222.4497,W,9.7,6.0,090725,0.0,E,N*15
\n$GPGGA,081035.663,3747.1615,N,12223.3019,W,1,8,1.2,0.0,M,19.6,M,,*78
\n$GPRMC,081035.663,A,3747.1615,N,12223.3019,W,9.4,158.0,090725,0.0,E,N*13
\n$GPGGA,081035.663,3749.8500,N,12228.1919,W,1,8,1.2,0.0,M,19.6,M,,*78
\n$GPRMC,081035.663,A,3749.8500,N,12228.1919,W,5.1,65.0,090725,0.0,E,N*25
\n$GPGGA,081035.663,3747.8632,N,12222.4493,W,1,8,1.2,0.0,M,19.6,M,,*74
\n$GPRMC,081035.663,A,3747.8632,N,12222.4493,W,10.1,6.0,090725,0.0,E,N*28
\n$GPGGA,081036.663,3747.1603,N,12223.3003,W,1,8,1.2,0.0,M,19.6,M,,*77
\n$GPRMC,081036.663,A,3747.1603,N,12223.3003,W,9.6,158.0,090725,0.0,E,N*1E
\n$GPGGA,081036.663,3749.8519,N,12228.1899,W,1,8,1.2,0.0,M,19.6,M,,*7A
\n$GPRMC,081036.663,A,3749.8519,N,12228.1899,W,5.3,65.0,090725,0.0,E,N*25
\n$GPGGA,081036.663,3747.8673,N,12222.4486,W,1,8,1.2,0.0,M,19.6,M,,*76
\n$GPRMC,081036.663,A,3747.8673,N,12222.4486,W,10.3,6.0,090725,0.0,E,N*28
\n$GPGGA,081037.663,3747.1571,N,12223.2996,W,1,8,1.2,0.0,M,19.6,M,,*74
\n$GPRMC,081037.663,A,3747.1571,N,12223.2996,W,9.4,158.0,090725,0.0,E,N*1F
\n$GPGGA,081037.663,3749.8518,N,12228.1888,W,1,8,1.2,0.0,M,19.6,M,,*7A
\n$GPRMC,081037.663,A,3749.8518,N,12228.1888,W,5.1,65.0,090725,0.0,E,N*27
\n$GPGGA,081037.663,3747.8694,N,12222.4487,W,1,8,1.2,0.0,M,19.6,M,,*7F
\n$GPRMC,081037.663,A,3747.8694,N,12222.4487,W,10.1,6.0,090725,0.0,E,N*23
\n$GPGGA,081038.663,3747.1550,N,12223.2980,W,1,8,1.2,0.0,M,19.6,M,,*7F
\n$GPRMC,081038.663,A,3747.1550,N,12223.2980,W,9.3,158.0,090725,0.0,E,N*13
\n$GPGGA,081038.663,3749.8526,N,12228.1868,W,1,8,1.2,0.0,M,19.6,M,,*76
\n$GPRMC,081038.663,A,3749.8526,N,12228.1868,W,5.1,65.0,090725,0.0,E,N*2B
\n$GPGGA,081038.663,3747.8725,N,12222.4480,W,1,8,1.2,0.0,M,19.6,M,,*7C
\n$GPRMC,081038.663,A,3747.8725,N,12222.4480,W,10.1,6.0,090725,0.0,E,N*20
\n$GPGGA,081039.663,3747.1519,N,12223.2973,W,1,8,1.2,0.0,M,19.6,M,,*7F
\n$GPRMC,081039.663,A,3747.1519,N,12223.2973,W,9.2,158.0,090725,0.0,E,N*12
\n$GPGGA,081039.663,3749.8525,N,12228.1857,W,1,8,1.2,0.0,M,19.6,M,,*78
\n$GPRMC,081039.663,A,3749.8525,N,12228.1857,W,4.9,65.0,090725,0.0,E,N*2C
\n$GPGGA,081039.663,3747.8745,N,12222.4481,W,1,8,1.2,0.0,M,19.6,M,,*7A
\n$GPRMC,081039.663,A,3747.8745,N,12222.4481,W,9.9,6.0,090725,0.0,E,N*16
\n$GPGGA,081040.663,3747.1500,N,12223.2975,W,1,8,1.2,0.0,M,19.6,M,,*7F
\n$GPRMC,081040.663,A,3747.1500,N,12223.2975,W,9.1,158.0,090725,0.0,E,N*11
\n$GPGGA,081040.663,3749.8535,N,12228.1856,W,1,8,1.2,0.0,M,19.6,M,,*76
\n$GPRMC,081040.663,A,3749.8535,N,12228.1856,W,4.8,65.0,090725,0.0,E,N*23
\n$GPGGA,081040.663,3747.8776,N,12222.4491,W,1,8,1.2,0.0,M,19.6,M,,*75
\n$GPRMC,081040.663,A,3747.8776,N,12222.4491,W,9.8,6.0,090725,0.0,E,N*18
\n!AIVDM,1,1,,A,15Mwqh@01KG?h3REWhS6;4u@0000,0*5F\n!AIVDM,1,1,,A,25Mwqh@01KG?h3REWhS6;4u@0000,0*5C\n!AIVDM,1,1,,A,35Mwqh@01KG?h3REWhS6;4u@0000,0*5D\n!AIVDM,1,1,,A,15MwqhP00hG?H<0EaJ9jRR3@0000,0*4B\n!AIVDM,1,1,,A,25MwqhP00hG?H<0EaJ9jRR3@0000,0*48\n!AIVDM,1,1,,A,35MwqhP00hG?H<0EaJ9jRR3@0000,0*49\n!AIVDM,1,1,,A,15Mwqhh01RG?l<bE`<v0?0=@0000,0*5D\n!AIVDM,1,1,,A,25Mwqhh01RG?l<bE`<v0?0=@0000,0*5E\n!AIVDM,1,1,,A,35Mwqhh01RG?l<bE`<v0?0=@0000,0*5F\n$GPGGA,081041.663,3747.1479,N,12223.2953,W,1,8,1.2,0.0,M,19.6,M,,*75
\n$GPRMC,081041.663,A,3747.1479,N,12223.2953,W,9.3,158.0,090725,0.0,E,N*19
\n$GPGGA,081041.663,3749.8543,N,12228.1831,W,1,8,1.2,0.0,M,19.6,M,,*77
\n$GPRMC,081041.663,A,3749.8543,N,12228.1831,W,5.0,65.0,090725,0.0,E,N*2B
\n$GPGGA,081041.663,3747.8806,N,12222.4479,W,1,8,1.2,0.0,M,19.6,M,,*7A
\n$GPRMC,081041.663,A,3747.8806,N,12222.4479,W,10.0,6.0,090725,0.0,E,N*27
\n$GPGGA,081042.663,3747.1460,N,12223.2943,W,1,8,1.2,0.0,M,19.6,M,,*7F
\n$GPRMC,081042.663,A,3747.1460,N,12223.2943,W,9.4,158.0,090725,0.0,E,N*14
\n$GPGGA,081042.663,3749.8555,N,12228.1817,W,1,8,1.2,0.0,M,19.6,M,,*77
\n$GPRMC,081042.663,A,3749.8555,N,12228.1817,W,5.1,65.0,090725,0.0,E,N*2A
\n$GPGGA,081042.663,3747.8840,N,12222.4477,W,1,8,1.2,0.0,M,19.6,M,,*75
\n$GPRMC,081042.663,A,3747.8840,N,12222.4477,W,10.1,6.0,090725,0.0,E,N*29
\n$GPGGA,081043.663,3747.1433,N,12223.2922,W,1,8,1.2,0.0,M,19.6,M,,*7F
\n$GPRMC,081043.663,A,3747.1433,N,12223.2922,W,9.2,158.0,090725,0.0,E,N*12
\n$GPGGA,081043.663,3749.8557,N,12228.1792,W,1,8,1.2,0.0,M,19.6,M,,*76
\n$GPRMC,081043.663,A,3749.8557,N,12228.1792,W,4.9,65.0,090725,0.0,E,N*22
\n$GPGGA,081043.663,3747.8863,N,12222.4465,W,1,8,1.2,0.0,M,19.6,M,,*76
\n$GPRMC,081043.663,A,3747.8863,N,12222.4465,W,9.9,6.0,090725,0.0,E,N*1A
\n$GPGGA,081044.663,3747.1411,N,12223.2890,W,1,8,1.2,0.0,M,19.6,M,,*70
\n$GPRMC,081044.663,A,3747.1411,N,12223.2890,W,9.5,158.0,090725,0.0,E,N*1A
\n$GPGGA,081044.663,3749.8566,N,12228.1756,W,1,8,1.2,0.0,M,19.6,M,,*7B
\n$GPRMC,081044.663,A,3749.8566,N,12228.1756,W,5.2,65.0,090725,0.0,E,N*25
\n$GPGGA,081044.663,3747.8895,N,12222.4441,W,1,8,1.2,0.0,M,19.6,M,,*7E
\n$GPRMC,081044.663,A,3747.8895,N,12222.4441,W,10.2,6.0,090725,0.0,E,N*21
\n$GPGGA,081045.663,3747.1391,N,12223.2875,W,1,8,1.2,0.0,M,19.6,M,,*75
\n$GPRMC,081045.663,A,3747.1391,N,12223.2875,W,9.3,158.0,090725,0.0,E,N*19
\n$GPGGA,081045.663,3749.8576,N,12228.1738,W,1,8,1.2,0.0,M,19.6,M,,*73
\n$GPRMC,081045.663,A,3749.8576,N,12228.1738,W,5.0,65.0,090725,0.0,E,N*2F
\n$GPGGA,081045.663,3747.8926,N,12222.4435,W,1,8,1.2,0.0,M,19.6,M,,*75
\n$GPRMC,081045.663,A,3747.8926,N,12222.4435,W,10.0,6.0,090725,0.0,E,N*28
\n$GPGGA,081046.663,3747.1381,N,12223.2854,W,1,8,1.2,0.0,M,19.6,M,,*74
\n$GPRMC,081046.663,A,3747.1381,N,12223.2854,W,9.3,158.0,090725,0.0,E,N*18
\n$GPGGA,081046.663,3749.8596,N,12228.1713,W,1,8,1.2,0.0,M,19.6,M,,*77
\n$GPRMC,081046.663,A,3749.8596,N,12228.1713,W,5.0,65.0,090725,0.0,E,N*2B
\n$GPGGA,081046.663,3747.8968,N,12222.4423,W,1,8,1.2,0.0,M,19.6,M,,*7B
\n$GPRMC,081046.663,A,3747.8968,N,12222.4423,W,10.0,6.0,090725,0.0,E,N*26
\n$GPGGA,081047.663,3747.1355,N,12223.2840,W,1,8,1.2,0.0,M,19.6,M,,*79
\n$GPRMC,081047.663,A,3747.1355,N,12223.2840,W,9.1,158.0,090725,0.0,E,N*17
\n$GPGGA,081047.663,3749.8599,N,12228.1695,W,1,8,1.2,0.0,M,19.6,M,,*76
\n$GPRMC,081047.663,A,3749.8599,N,12228.1695,W,4.8,65.0,090725,0.0,E,N*23
\n$GPGGA,081047.663,3747.8992,N,12222.4416,W,1,8,1.2,0.0,M,19.6,M,,*79
\n$GPRMC,081047.663,A,3747.8992,N,12222.4416,W,9.8,6.0,090725,0.0,E,N*14
\n$GPGGA,081048.663,3747.1323,N,12223.2841,W,1,8,1.2,0.0,M,19.6,M,,*76
\n$GPRMC,081048.663,A,3747.1323,N,12223.2841,W,9.5,158.0,090725,0.0,E,N*1C
\n$GPGGA,081048.663,3749.8597,N,12228.1692,W,1,8,1.2,0.0,M,19.6,M,,*70
\n$GPRMC,081048.663,A,3749.8597,N,12228.1692,W,5.2,65.0,090725,0.0,E,N*2E
\n$GPGGA,081048.663,3747.9012,N,12222.4426,W,1,8,1.2,0.0,M,19.6,M,,*75
\n$GPRMC,081048.663,A,3747.9012,N,12222.4426,W,10.2,6.0,090725,0.0,E,N*2A
\n$GPGGA,081049.663,3747.1299,N,12223.2830,W,1,8,1.2,0.0,M,19.6,M,,*71
\n$GPRMC,081049.663,A,3747.1299,N,12223.2830,W,9.0,158.0,090725,0.0,E,N*1E
\n$GPGGA,081049.663,3749.8602,N,12228.1678,W,1,8,1.2,0.0,M,19.6,M,,*7A
\n$GPRMC,081049.663,A,3749.8602,N,12228.1678,W,4.7,65.0,090725,0.0,E,N*20
\n$GPGGA,081049.663,3747.9038,N,12222.4423,W,1,8,1.2,0.0,M,19.6,M,,*79
\n$GPRMC,081049.663,A,3747.9038,N,12222.4423,W,9.7,6.0,090725,0.0,E,N*1B
\n$GPGGA,081050.663,3747.1270,N,12223.2825,W,1,8,1.2,0.0,M,19.6,M,,*7A
\n$GPRMC,081050.663,A,3747.1270,N,12223.2825,W,9.4,158.0,090725,0.0,E,N*11
\n$GPGGA,081050.663,3749.8603,N,12228.1669,W,1,8,1.2,0.0,M,19.6,M,,*73
\n$GPRMC,081050.663,A,3749.8603,N,12228.1669,W,5.1,65.0,090725,0.0,E,N*2E
\n$GPGGA,081050.663,3747.9062,N,12222.4427,W,1,8,1.2,0.0,M,19.6,M,,*7A
\n$GPRMC,081050.663,A,3747.9062,N,12222.4427,W,10.1,6.0,090725,0.0,E,N*26
\n!AIVDM,1,1,,A,15Mwqh@01NG?h8>EWgaV;4uT0000,0*74\n!AIVDM,1,1,,A,25Mwqh@01NG?h8>EWgaV;4uT0000,0*77\n!AIVDM,1,1,,A,35Mwqh@01NG?h8>EWgaV;4uT0000,0*76\n!AIVDM,1,1,,A,B5Mwqh@0GUkt23UIsrIRi?I40000,0*23\n!AIVDM,1,1,,A,C5Mwqh@0GUkt23UIsrIRi?I17OMa3CM;UwWACQvPR000S48C32RP,0*08\n!AIVDM,1,1,,A,15MwqhP00kG?HAnEaJJjRR3T0000,0*0C\n!AIVDM,1,1,,A,25MwqhP00kG?HAnEaJJjRR3T0000,0*0F\n!AIVDM,1,1,,A,35MwqhP00kG?HAnEaJJjRR3T0000,0*0E\n!AIVDM,1,1,,A,B5MwqhP0<mkn4MUJFVd``Pq40000,0*41\n!AIVDM,1,1,,A,C5MwqhP0<mkn4MUJFVd``Pq1a3MG;UvPT00000000000`:<>U4RP,0*0A\n!AIVDM,1,1,,A,15Mwqhh01UG?l>bE`>5P?0=T0000,0*6D\n!AIVDM,1,1,,A,25Mwqhh01UG?l>bE`>5P?0=T0000,0*6E\n!AIVDM,1,1,,A,35Mwqhh01UG?l>bE`>5P?0=T0000,0*6F\n!AIVDM,1,1,,A,B5Mwqhh0IEku3bUJ3QH3h3I40000,0*49\n!AIVDM,1,1,,A,C5Mwqhh0IEku3bUJ3QH3h3I1=CWACM?we;WW;IvPV000?:06b32P,0*3F\n$GPGGA,081051.663,3747.1249,N,12223.2811,W,1,8,1.2,0.0,M,19.6,M,,*76
\n$GPRMC,081051.663,A,3747.1249,N,12223.2811,W,8.9,158.0,090725,0.0,E,N*11
\n$GPGGA,081051.663,3749.8611,N,12228.1652,W,1,8,1.2,0.0,M,19.6,M,,*79
\n$GPRMC,081051.663,A,3749.8611,N,12228.1652,W,4.6,65.0,090725,0.0,E,N*22
\n$GPGGA,081051.663,3747.9090,N,12222.4421,W,1,8,1.2,0.0,M,19.6,M,,*70
\n$GPRMC,081051.663,A,3747.9090,N,12222.4421,W,9.6,6.0,090725,0.0,E,N*13
\n$GPGGA,081052.663,3747.1229,N,12223.2799,W,1,8,1.2,0.0,M,19.6,M,,*7C
\n$GPRMC,081052.663,A,3747.1229,N,12223.2799,W,9.5,158.0,090725,0.0,E,N*16
\n$GPGGA,081052.663,3749.8621,N,12228.1636,W,1,8,1.2,0.0,M,19.6,M,,*7B
\n$GPRMC,081052.663,A,3749.8621,N,12228.1636,W,5.2,65.0,090725,0.0,E,N*25
\n$GPGGA,081052.663,3747.9123,N,12222.4419,W,1,8,1.2,0.0,M,19.6,M,,*71
\n$GPRMC,081052.663,A,3747.9123,N,12222.4419,W,10.2,6.0,090725,0.0,E,N*2E
\n$GPGGA,081053.663,3747.1204,N,12223.2790,W,1,8,1.2,0.0,M,19.6,M,,*7B
\n$GPRMC,081053.663,A,3747.1204,N,12223.2790,W,9.6,158.0,090725,0.0,E,N*12
\n$GPGGA,081053.663,3749.8627,N,12228.1623,W,1,8,1.2,0.0,M,19.6,M,,*78
\n$GPRMC,081053.663,A,3749.8627,N,12228.1623,W,5.3,65.0,090725,0.0,E,N*27
\n$GPGGA,081053.663,3747.9151,N,12222.4419,W,1,8,1.2,0.0,M,19.6,M,,*75
\n$GPRMC,081053.663,A,3747.9151,N,12222.4419,W,10.3,6.0,090725,0.0,E,N*2B
\n$GPGGA,081054.663,3747.1177,N,12223.2791,W,1,8,1.2,0.0,M,19.6,M,,*7A
\n$GPRMC,081054.663,A,3747.1177,N,12223.2791,W,9.2,158.0,090725,0.0,E,N*17
\n$GPGGA,081054.663,3749.8629,N,12228.1621,W,1,8,1.2,0.0,M,19.6,M,,*73
\n$GPRMC,081054.663,A,3749.8629,N,12228.1621,W,4.9,65.0,090725,0.0,E,N*27
\n$GPGGA,081054.663,3747.9175,N,12222.4428,W,1,8,1.2,0.0,M,19.6,M,,*76
\n$GPRMC,081054.663,A,3747.9175,N,12222.4428,W,9.9,6.0,090725,0.0,E,N*1A
\n$GPGGA,081055.663,3747.1154,N,12223.2781,W,1,8,1.2,0.0,M,19.6,M,,*7B
\n$GPRMC,081055.663,A,3747.1154,N,12223.2781,W,9.4,158.0,090725,0.0,E,N*10
\n$GPGGA,081055.663,3749.8637,N,12228.1607,W,1,8,1.2,0.0,M,19.6,M,,*79
\n$GPRMC,081055.663,A,3749.8637,N,12228.1607,W,5.1,65.0,090725,0.0,E,N*24
\n$GPGGA,081055.663,3747.9204,N,12222.4427,W,1,8,1.2,0.0,M,19.6,M,,*7D
\n$GPRMC,081055.663,A,3747.9204,N,12222.4427,W,10.1,6.0,090725,0.0,E,N*21
\n$GPGGA,081056.663,3747.1133,N,12223.2759,W,1,8,1.2,0.0,M,19.6,M,,*7C
\n$GPRMC,081056.663,A,3747.1133,N,12223.2759,W,9.2,158.0,090725,0.0,E,N*11
\n$GPGGA,081056.663,3749.8645,N,12228.1581,W,1,8,1.2,0.0,M,19.6,M,,*72
\n$GPRMC,081056.663,A,3749.8645,N,12228.1581,W,4.9,65.0,090725,0.0,E,N*26
\n$GPGGA,081056.663,3747.9234,N,12222.4413,W,1,8,1.2,0.0,M,19.6,M,,*7A
\n$GPRMC,081056.663,A,3747.9234,N,12222.4413,W,9.9,6.0,090725,0.0,E,N*16
\n$GPGGA,081057.663,3747.1106,N,12223.2750,W,1,8,1.2,0.0,M,19.6,M,,*72
\n$GPRMC,081057.663,A,3747.1106,N,12223.2750,W,9.3,158.0,090725,0.0,E,N*1E
\n$GPGGA,081057.663,3749.8647,N,12228.1568,W,1,8,1.2,0.0,M,19.6,M,,*76
\n$GPRMC,081057.663,A,3749.8647,N,12228.1568,W,5.1,65.0,090725,0.0,E,N*2B
\n$GPGGA,081057.663,3747.9258,N,12222.4412,W,1,8,1.2,0.0,M,19.6,M,,*70
\n$GPRMC,081057.663,A,3747.9258,N,12222.4412,W,10.0,6.0,090725,0.0,E,N*2D
\n$GPGGA,081058.663,3747.1074,N,12223.2739,W,1,8,1.2,0.0,M,19.6,M,,*76
\n$GPRMC,081058.663,A,3747.1074,N,12223.2739,W,9.3,158.0,090725,0.0,E,N*1A
\n$GPGGA,081058.663,3749.8646,N,12228.1553,W,1,8,1.2,0.0,M,19.6,M,,*70
\n$GPRMC,081058.663,A,3749.8646,N,12228.1553,W,5.0,65.0,090725,0.0,E,N*2C
\n$GPGGA,081058.663,3747.9278,N,12222.4409,W,1,8,1.2,0.0,M,19.6,M,,*77
\n$GPRMC,081058.663,A,3747.9278,N,12222.4409,W,10.0,6.0,090725,0.0,E,N*2A
\n$GPGGA,081059.663,3747.1061,N,12223.2721,W,1,8,1.2,0.0,M,19.6,M,,*7A
\n$GPRMC,081059.663,A,3747.1061,N,12223.2721,W,9.3,158.0,090725,0.0,E,N*16
\n$GPGGA,081059.663,3749.8663,N,12228.1531,W,1,8,1.2,0.0,M,19.6,M,,*72
\n$GPRMC,081059.663,A,3749.8663,N,12228.1531,W,5.1,65.0,090725,0.0,E,N*2F
\n$GPGGA,081059.663,3747.9317,N,12222.4400,W,1,8,1.2,0.0,M,19.6,M,,*77
\n$GPRMC,081059.663,A,3747.9317,N,12222.4400,W,10.1,6.0,090725,0.0,E,N*2B
\n$GPGGA,081100.663,3747.1032,N,12223.2704,W,1,8,1.2,0.0,M,19.6,M,,*76
\n$GPRMC,081100.663,A,3747.1032,N,12223.2704,W,9.5,158.0,090725,0.0,E,N*1C
\n$GPGGA,081100.663,3749.8665,N,12228.1510,W,1,8,1.2,0.0,M,19.6,M,,*7A
\n$GPRMC,081100.663,A,3749.8665,N,12228.1510,W,5.3,65.0,090725,0.0,E,N*25
\n$GPGGA,081100.663,3747.9341,N,12222.4392,W,1,8,1.2,0.0,M,19.6,M,,*75
\n$GPRMC,081100.663,A,3747.9341,N,12222.4392,W,10.2,6.0,090725,0.0,E,N*2A
\n!AIVDM,1,1,,A,15Mwqh@01OG?h<0EWff6;4t00000,0*7C\n!AIVDM,1,1,,A,25Mwqh@01OG?h<0EWff6;4t00000,0*7F\n!AIVDM,1,1,,A,35Mwqh@01OG?h<0EWff6;4t00000,0*7E\n!AIVDM,1,1,,A,15MwqhP00mG?HFlEaJbBRR200000,0*6A\n!AIVDM,1,1,,A,25MwqhP00mG?HFlEaJbBRR200000,0*69\n!AIVDM,1,1,,A,35MwqhP00mG?HFlEaJbBRR200000,0*68\n!AIVDM,1,1,,A,15Mwqhh01VG?l?hE`?;@?0<00000,0*1F\n!AIVDM,1,1,,A,25Mwqhh01VG?l?hE`?;@?0<00000,0*1C\n!AIVDM,1,1,,A,35Mwqhh01VG?l?hE`?;@?0<00000,0*1D\n$GPGGA,081101.663,3747.1011,N,12223.2689,W,1,8,1.2,0.0,M,19.6,M,,*72
\n$GPRMC,081101.663,A,3747.1011,N,12223.2689,W,9.1,158.0,090725,0.0,E,N*1C
\n$GPGGA,081101.663,3749.8672,N,12228.1493,W,1,8,1.2,0.0,M,19.6,M,,*77
\n$GPRMC,081101.663,A,3749.8672,N,12228.1493,W,4.8,65.0,090725,0.0,E,N*22
\n$GPGGA,081101.663,3747.9370,N,12222.4386,W,1,8,1.2,0.0,M,19.6,M,,*73
\n$GPRMC,081101.663,A,3747.9370,N,12222.4386,W,9.8,6.0,090725,0.0,E,N*1E
\n$GPGGA,081102.663,3747.0999,N,12223.2674,W,1,8,1.2,0.0,M,19.6,M,,*7B
\n$GPRMC,081102.663,A,3747.0999,N,12223.2674,W,9.2,158.0,090725,0.0,E,N*16
\n$GPGGA,081102.663,3749.8690,N,12228.1474,W,1,8,1.2,0.0,M,19.6,M,,*71
\n$GPRMC,081102.663,A,3749.8690,N,12228.1474,W,4.9,65.0,090725,0.0,E,N*25
\n$GPGGA,081102.663,3747.9410,N,12222.4379,W,1,8,1.2,0.0,M,19.6,M,,*71
\n$GPRMC,081102.663,A,3747.9410,N,12222.4379,W,9.9,6.0,090725,0.0,E,N*1D
\n$GPGGA,081103.663,3747.0979,N,12223.2665,W,1,8,1.2,0.0,M,19.6,M,,*74
\n$GPRMC,081103.663,A,3747.0979,N,12223.2665,W,9.0,158.0,090725,0.0,E,N*1B
\n$GPGGA,081103.663,3749.8699,N,12228.1461,W,1,8,1.2,0.0,M,19.6,M,,*7D
\n$GPRMC,081103.663,A,3749.8699,N,12228.1461,W,4.7,65.0,090725,0.0,E,N*27
\n$GPGGA,081103.663,3747.9440,N,12222.4378,W,1,8,1.2,0.0,M,19.6,M,,*74
\n$GPRMC,081103.663,A,3747.9440,N,12222.4378,W,9.7,6.0,090725,0.0,E,N*16
\n$GPGGA,081104.663,3747.0958,N,12223.2650,W,1,8,1.2,0.0,M,19.6,M,,*76
\n$GPRMC,081104.663,A,3747.0958,N,12223.2650,W,9.3,158.0,090725,0.0,E,N*1A
\n$GPGGA,081104.663,3749.8707,N,12228.1443,W,1,8,1.2,0.0,M,19.6,M,,*7C
\n$GPRMC,081104.663,A,3749.8707,N,12228.1443,W,5.0,65.0,090725,0.0,E,N*20
\n$GPGGA,081104.663,3747.9470,N,12222.4372,W,1,8,1.2,0.0,M,19.6,M,,*7A
\n$GPRMC,081104.663,A,3747.9470,N,12222.4372,W,10.0,6.0,090725,0.0,E,N*27
\n$GPGGA,081105.663,3747.0928,N,12223.2634,W,1,8,1.2,0.0,M,19.6,M,,*72
\n$GPRMC,081105.663,A,3747.0928,N,12223.2634,W,8.9,158.0,090725,0.0,E,N*15
\n$GPGGA,081105.663,3749.8706,N,12228.1423,W,1,8,1.2,0.0,M,19.6,M,,*7A
\n$GPRMC,081105.663,A,3749.8706,N,12228.1423,W,4.6,65.0,090725,0.0,E,N*21
\n$GPGGA,081105.663,3747.9490,N,12222.4364,W,1,8,1.2,0.0,M,19.6,M,,*72
\n$GPRMC,081105.663,A,3747.9490,N,12222.4364,W,9.6,6.0,090725,0.0,E,N*11
\n$GPGGA,081106.663,3747.0915,N,12223.2610,W,1,8,1.2,0.0,M,19.6,M,,*79
\n$GPRMC,081106.663,A,3747.0915,N,12223.2610,W,9.6,158.0,090725,0.0,E,N*10
\n$GPGGA,081106.663,3749.8724,N,12228.1396,W,1,8,1.2,0.0,M,19.6,M,,*70
\n$GPRMC,081106.663,A,3749.8724,N,12228.1396,W,5.3,65.0,090725,0.0,E,N*2F
\n$GPGGA,081106.663,3747.9530,N,12222.4349,W,1,8,1.2,0.0,M,19.6,M,,*75
\n$GPRMC,081106.663,A,3747.9530,N,12222.4349,W,10.3,6.0,090725,0.0,E,N*2B
\n$GPGGA,081107.663,3747.0896,N,12223.2610,W,1,8,1.2,0.0,M,19.6,M,,*72
\n$GPRMC,081107.663,A,3747.0896,N,12223.2610,W,8.9,158.0,090725,0.0,E,N*15
\n$GPGGA,081107.663,3749.8734,N,12228.1392,W,1,8,1.2,0.0,M,19.6,M,,*74
\n$GPRMC,081107.663,A,3749.8734,N,12228.1392,W,4.6,65.0,090725,0.0,E,N*2F
\n$GPGGA,081107.663,3747.9561,N,12222.4357,W,1,8,1.2,0.0,M,19.6,M,,*7F
\n$GPRMC,081107.663,A,3747.9561,N,12222.4357,W,9.6,6.0,090725,0.0,E,N*1C
\n$GPGGA,081108.663,3747.0873,N,12223.2604,W,1,8,1.2,0.0,M,19.6,M,,*73
\n$GPRMC,081108.663,A,3747.0873,N,12223.2604,W,9.7,158.0,090725,0.0,E,N*1B
\n$GPGGA,081108.663,3749.8741,N,12228.1382,W,1,8,1.2,0.0,M,19.6,M,,*78
\n$GPRMC,081108.663,A,3749.8741,N,12228.1382,W,5.4,65.0,090725,0.0,E,N*20
\n$GPGGA,081108.663,3747.9591,N,12222.4360,W,1,8,1.2,0.0,M,19.6,M,,*7B
\n$GPRMC,081108.663,A,3747.9591,N,12222.4360,W,10.4,6.0,090725,0.0,E,N*22
\n$GPGGA,081109.663,3747.0852,N,12223.2603,W,1,8,1.2,0.0,M,19.6,M,,*76
\n$GPRMC,081109.663,A,3747.0852,N,12223.2603,W,9.7,158.0,090725,0.0,E,N*1E
\n$GPGGA,081109.663,3749.8752,N,12228.1376,W,1,8,1.2,0.0,M,19.6,M,,*70
\n$GPRMC,081109.663,A,3749.8752,N,12228.1376,W,5.4,65.0,090725,0.0,E,N*28
\n$GPGGA,081109.663,3747.9624,N,12222.4368,W,1,8,1.2,0.0,M,19.6,M,,*7F
\n$GPRMC,081109.663,A,3747.9624,N,12222.4368,W,10.4,6.0,090725,0.0,E,N*26
\n$GPGGA,081110.663,3747.0823,N,12223.2590,W,1,8,1.2,0.0,M,19.6,M,,*71
\n$GPRMC,081110.663,A,3747.0823,N,12223.2590,W,9.4,158.0,090725,0.0,E,N*1A
\n$GPGGA,081110.663,3749.8753,N,12228.1359,W,1,8,1.2,0.0,M,19.6,M,,*74
\n$GPRMC,081110.663,A,3749.8753,N,12228.1359,W,5.1,65.0,090725,0.0,E,N*29
\n$GPGGA,081110.663,3747.9647,N,12222.4363,W,1,8,1.2,0.0,M,19.6,M,,*79
\n$GPRMC,081110.663,A,3747.9647,N,12222.4363,W,10.1,6.0,090725,0.0,E,N*25
\n!AIVDM,1,1,,A,15Mwqh@01NG?h?TEWeqn;4tD0000,0*22\n!AIVDM,1,1,,A,25Mwqh@01NG?h?TEWeqn;4tD0000,0*21\n!AIVDM,1,1,,A,35Mwqh@01NG?h?TEWeqn;4tD0000,0*20\n!AIVDM,1,1,,A,15MwqhP00kG?HKREaK0BRR2D0000,0*78\n!AIVDM,1,1,,A,25MwqhP00kG?HKREaK0BRR2D0000,0*7B\n!AIVDM,1,1,,A,35MwqhP00kG?HKREaK0BRR2D0000,0*7A\n!AIVDM,1,1,,A,15Mwqhh01UG?l@bE`@Gh?0<D0000,0*36\n!AIVDM,1,1,,A,25Mwqhh01UG?l@bE`@Gh?0<D0000,0*35\n!AIVDM,1,1,,A,35Mwqhh01UG?l@bE`@Gh?0<D0000,0*34\n$GPGGA,081111.663,3747.0808,N,12223.2586,W,1,8,1.2,0.0,M,19.6,M,,*7E
\n$GPRMC,081111.663,A,3747.0808,N,12223.2586,W,9.2,158.0,090725,0.0,E,N*13
\n$GPGGA,081111.663,3749.8767,N,12228.1352,W,1,8,1.2,0.0,M,19.6,M,,*79
\n$GPRMC,081111.663,A,3749.8767,N,12228.1352,W,5.0,65.0,090725,0.0,E,N*25
\n$GPGGA,081111.663,3747.9683,N,12222.4368,W,1,8,1.2,0.0,M,19.6,M,,*7B
\n$GPRMC,081111.663,A,3747.9683,N,12222.4368,W,9.9,6.0,090725,0.0,E,N*17
\n$GPGGA,081112.663,3747.0794,N,12223.2579,W,1,8,1.2,0.0,M,19.6,M,,*77
\n$GPRMC,081112.663,A,3747.0794,N,12223.2579,W,9.4,158.0,090725,0.0,E,N*1C
\n$GPGGA,081112.663,3749.8784,N,12228.1341,W,1,8,1.2,0.0,M,19.6,M,,*75
\n$GPRMC,081112.663,A,3749.8784,N,12228.1341,W,5.1,65.0,090725,0.0,E,N*28
\n$GPGGA,081112.663,3747.9722,N,12222.4370,W,1,8,1.2,0.0,M,19.6,M,,*7B
\n$GPRMC,081112.663,A,3747.9722,N,12222.4370,W,10.1,6.0,090725,0.0,E,N*27
\n$GPGGA,081113.663,3747.0771,N,12223.2570,W,1,8,1.2,0.0,M,19.6,M,,*74
\n$GPRMC,081113.663,A,3747.0771,N,12223.2570,W,9.4,158.0,090725,0.0,E,N*1F
\n$GPGGA,081113.663,3749.8791,N,12228.1329,W,1,8,1.2,0.0,M,19.6,M,,*7E
\n$GPRMC,081113.663,A,3749.8791,N,12228.1329,W,5.1,65.0,090725,0.0,E,N*23
\n$GPGGA,081113.663,3747.9751,N,12222.4370,W,1,8,1.2,0.0,M,19.6,M,,*7E
\n$GPRMC,081113.663,A,3747.9751,N,12222.4370,W,10.1,6.0,090725,0.0,E,N*22
\n$GPGGA,081114.663,3747.0748,N,12223.2564,W,1,8,1.2,0.0,M,19.6,M,,*7C
\n$GPRMC,081114.663,A,3747.0748,N,12223.2564,W,9.5,158.0,090725,0.0,E,N*16
\n$GPGGA,081114.663,3749.8798,N,12228.1318,W,1,8,1.2,0.0,M,19.6,M,,*72
\n$GPRMC,081114.663,A,3749.8798,N,12228.1318,W,5.2,65.0,090725,0.0,E,N*2C
\n$GPGGA,081114.663,3747.9779,N,12222.4372,W,1,8,1.2,0.0,M,19.6,M,,*71
\n$GPRMC,081114.663,A,3747.9779,N,12222.4372,W,10.2,6.0,090725,0.0,E,N*2E
\n$GPGGA,081115.663,3747.0727,N,12223.2552,W,1,8,1.2,0.0,M,19.6,M,,*71
\n$GPRMC,081115.663,A,3747.0727,N,12223.2552,W,9.7,158.0,090725,0.0,E,N*19
\n$GPGGA,081115.663,3749.8809,N,12228.1302,W,1,8,1.2,0.0,M,19.6,M,,*7F
\n$GPRMC,081115.663,A,3749.8809,N,12228.1302,W,5.4,65.0,090725,0.0,E,N*27
\n$GPGGA,081115.663,3747.9813,N,12222.4369,W,1,8,1.2,0.0,M,19.6,M,,*79
\n$GPRMC,081115.663,A,3747.9813,N,12222.4369,W,10.4,6.0,090725,0.0,E,N*20
\n$GPGGA,081116.663,3747.0699,N,12223.2532,W,1,8,1.2,0.0,M,19.6,M,,*70
\n$GPRMC,081116.663,A,3747.0699,N,12223.2532,W,9.2,158.0,090725,0.0,E,N*1D
\n$GPGGA,081116.663,3749.8810,N,12228.1279,W,1,8,1.2,0.0,M,19.6,M,,*79
\n$GPRMC,081116.663,A,3749.8810,N,12228.1279,W,4.9,65.0,090725,0.0,E,N*2D
\n$GPGGA,081116.663,3747.9835,N,12222.4358,W,1,8,1.2,0.0,M,19.6,M,,*7C
\n$GPRMC,081116.663,A,3747.9835,N,12222.4358,W,9.9,6.0,090725,0.0,E,N*10
\n$GPGGA,081117.663,3747.0678,N,12223.2521,W,1,8,1.2,0.0,M,19.6,M,,*7C
\n$GPRMC,081117.663,A,3747.0678,N,12223.2521,W,9.3,158.0,090725,0.0,E,N*10
\n$GPGGA,081117.663,3749.8819,N,12228.1264,W,1,8,1.2,0.0,M,19.6,M,,*7D
\n$GPRMC,081117.663,A,3749.8819,N,12228.1264,W,5.0,65.0,090725,0.0,E,N*21
\n$GPGGA,081117.663,3747.9866,N,12222.4356,W,1,8,1.2,0.0,M,19.6,M,,*75
\n$GPRMC,081117.663,A,3747.9866,N,12222.4356,W,10.0,6.0,090725,0.0,E,N*28
\n$GPGGA,081118.663,3747.0653,N,12223.2504,W,1,8,1.2,0.0,M,19.6,M,,*7D
\n$GPRMC,081118.663,A,3747.0653,N,12223.2504,W,9.5,158.0,090725,0.0,E,N*17
\n$GPGGA,081118.663,3749.8824,N,12228.1243,W,1,8,1.2,0.0,M,19.6,M,,*79
\n$GPRMC,081118.663,A,3749.8824,N,12228.1243,W,5.2,65.0,090725,0.0,E,N*27
\n$GPGGA,081118.663,3747.9893,N,12222.4347,W,1,8,1.2,0.0,M,19.6,M,,*70
\n$GPRMC,081118.663,A,3747.9893,N,12222.4347,W,10.2,6.0,090725,0.0,E,N*2F
\n$GPGGA,081119.663,3747.0634,N,12223.2488,W,1,8,1.2,0.0,M,19.6,M,,*78
\n$GPRMC,081119.663,A,3747.0634,N,12223.2488,W,9.3,158.0,090725,0.0,E,N*14
\n$GPGGA,081119.663,3749.8835,N,12228.1223,W,1,8,1.2,0.0,M,19.6,M,,*7E
\n$GPRMC,081119.663,A,3749.8835,N,12228.1223,W,5.0,65.0,090725,0.0,E,N*22
\n$GPGGA,081119.663,3747.9926,N,12222.4340,W,1,8,1.2,0.0,M,19.6,M,,*79
\n$GPRMC,081119.663,A,3747.9926,N,12222.4340,W,10.0,6.0,090725,0.0,E,N*24
\n$GPGGA,081120.663,3747.0605,N,12223.2481,W,1,8,1.2,0.0,M,19.6,M,,*79
\n$GPRMC,081120.663,A,3747.0605,N,12223.2481,W,9.3,158.0,090725,0.0,E,N*15
\n$GPGGA,081120.663,3749.8836,N,12228.1212,W,1,8,1.2,0.0,M,19.6,M,,*75
\n$GPRMC,081120.663,A,3749.8836,N,12228.1212,W,5.0,65.0,090725,0.0,E,N*29
\n$GPGGA,081120.663,3747.9948,N,12222.4341,W,1,8,1.2,0.0,M,19.6,M,,*7A
\n$GPRMC,081120.663,A,3747.9948,N,12222.4341,W,10.0,6.0,090725,0.0,E,N*27
