# NMEA Simulation started at 2025-07-09T09:00:50.295469
$GPGGA,090051.298,3746.4961,N,12225.1614,W,1,8,1.2,50.0,M,19.6,M,,*48
$GPRMC,090051.298,A,3746.4961,N,12225.1614,W,10.0,43.3,090725,6.1,E,A*1A
$GPGGA,090052.302,3746.4972,N,12225.1585,W,1,8,1.2,50.0,M,19.6,M,,*40
$GPRMC,090052.302,A,3746.4972,N,12225.1585,W,10.3,43.7,090725,6.1,E,A*15
$GPGGA,090053.304,3746.5015,N,12225.1568,W,1,8,1.2,50.0,M,19.6,M,,*4D
$GPRMC,090053.304,A,3746.5015,N,12225.1568,W,10.2,44.3,090725,6.1,E,A*1A
$GPGGA,090054.307,3746.5047,N,12225.1525,W,1,8,1.2,50.0,M,19.6,M,,*47
$GPRMC,090054.307,A,3746.5047,N,12225.1525,W,10.4,44.7,090725,6.1,E,A*12
$GPGGA,090055.309,3746.5071,N,12225.1497,W,1,8,1.2,50.0,M,19.6,M,,*45
$GPRMC,090055.309,A,3746.5071,N,12225.1497,W,10.5,45.7,090725,6.1,E,A*10
$GPGGA,090056.312,3746.5081,N,12225.1467,W,1,8,1.2,50.0,M,19.6,M,,*4C
$GPRMC,090056.312,A,3746.5081,N,12225.1467,W,10.3,46.9,090725,6.1,E,A*12
$GPGGA,090057.315,3746.5100,N,12225.1430,W,1,8,1.2,50.0,M,19.6,M,,*40
$GPRMC,090057.315,A,3746.5100,N,12225.1430,W,10.5,45.8,090725,6.1,E,A*1A
$GPGGA,090058.317,3746.5140,N,12225.1410,W,1,8,1.2,50.0,M,19.6,M,,*4B
$GPRMC,090058.317,A,3746.5140,N,12225.1410,W,10.5,44.8,090725,6.1,E,A*10
$GPGGA,090059.320,3746.5170,N,12225.1385,W,1,8,1.2,50.0,M,19.6,M,,*46
$GPRMC,090059.320,A,3746.5170,N,12225.1385,W,10.6,44.4,090725,6.1,E,A*12
$GPGGA,090100.323,3746.5182,N,12225.1348,W,1,8,1.2,50.0,M,19.6,M,,*44
$GPRMC,090100.323,A,3746.5182,N,12225.1348,W,10.6,44.3,090725,6.1,E,A*17
$GPGGA,090101.325,3746.5201,N,12225.1322,W,1,8,1.2,50.0,M,19.6,M,,*47
$GPRMC,090101.325,A,3746.5201,N,12225.1322,W,10.4,44.3,090725,6.1,E,A*16
$GPGGA,090102.328,3746.5215,N,12225.1288,W,1,8,1.2,50.0,M,19.6,M,,*4D
$GPRMC,090102.328,A,3746.5215,N,12225.1288,W,10.3,43.1,090725,6.1,E,A*1E
$GPGGA,090103.331,3746.5229,N,12225.1257,W,1,8,1.2,50.0,M,19.6,M,,*49
$GPRMC,090103.331,A,3746.5229,N,12225.1257,W,10.5,42.4,090725,6.1,E,A*18
$GPGGA,090104.333,3746.5256,N,12225.1246,W,1,8,1.2,50.0,M,19.6,M,,*44
$GPRMC,090104.333,A,3746.5256,N,12225.1246,W,10.7,43.0,090725,6.1,E,A*12
$GPGGA,090105.337,3746.5275,N,12225.1208,W,1,8,1.2,50.0,M,19.6,M,,*4A
$GPRMC,090105.337,A,3746.5275,N,12225.1208,W,10.7,42.2,090725,6.1,E,A*1F
$GPGGA,090106.342,3746.5290,N,12225.1186,W,1,8,1.2,50.0,M,19.6,M,,*45
$GPRMC,090106.342,A,3746.5290,N,12225.1186,W,10.5,41.6,090725,6.1,E,A*15
$GPGGA,090107.346,3746.5313,N,12225.1165,W,1,8,1.2,50.0,M,19.6,M,,*47
$GPRMC,090107.346,A,3746.5313,N,12225.1165,W,10.5,39.9,090725,6.1,E,A*17
$GPGGA,090108.348,3746.5329,N,12225.1159,W,1,8,1.2,50.0,M,19.6,M,,*40
$GPRMC,090108.348,A,3746.5329,N,12225.1159,W,10.7,39.3,090725,6.1,E,A*18
$GPGGA,090109.351,3746.5343,N,12225.1128,W,1,8,1.2,50.0,M,19.6,M,,*43
$GPRMC,090109.351,A,3746.5343,N,12225.1128,W,10.8,38.9,090725,6.1,E,A*1F
$GPGGA,090110.354,3746.5346,N,12225.1110,W,1,8,1.2,50.0,M,19.6,M,,*40
$GPRMC,090110.354,A,3746.5346,N,12225.1110,W,10.8,40.0,090725,6.1,E,A*1A
$GPGGA,090111.357,3746.5353,N,12225.1104,W,1,8,1.2,50.0,M,19.6,M,,*43
$GPRMC,090111.357,A,3746.5353,N,12225.1104,W,10.6,39.7,090725,6.1,E,A*1E
$GPGGA,090112.360,3746.5390,N,12225.1087,W,1,8,1.2,50.0,M,19.6,M,,*41
$GPRMC,090112.360,A,3746.5390,N,12225.1087,W,11.0,39.8,090725,6.1,E,A*14
$GPGGA,090113.363,3746.5398,N,12225.1076,W,1,8,1.2,50.0,M,19.6,M,,*45
$GPRMC,090113.363,A,3746.5398,N,12225.1076,W,10.9,40.8,090725,6.1,E,A*16
$GPGGA,090114.366,3746.5407,N,12225.1063,W,1,8,1.2,50.0,M,19.6,M,,*42
$GPRMC,090114.366,A,3746.5407,N,12225.1063,W,11.1,39.6,090725,6.1,E,A*18
$GPGGA,090115.369,3746.5437,N,12225.1032,W,1,8,1.2,50.0,M,19.6,M,,*4B
$GPRMC,090115.369,A,3746.5437,N,12225.1032,W,11.2,39.8,090725,6.1,E,A*1C
$GPGGA,090116.372,3746.5478,N,12225.1011,W,1,8,1.2,50.0,M,19.6,M,,*48
$GPRMC,090116.372,A,3746.5478,N,12225.1011,W,11.3,40.8,090725,6.1,E,A*10
$GPGGA,090117.374,3746.5499,N,12225.0998,W,1,8,1.2,50.0,M,19.6,M,,*49
$GPRMC,090117.374,A,3746.5499,N,12225.0998,W,11.1,40.9,090725,6.1,E,A*12
$GPGGA,090118.377,3746.5516,N,12225.0979,W,1,8,1.2,50.0,M,19.6,M,,*4C
$GPRMC,090118.377,A,3746.5516,N,12225.0979,W,11.0,39.3,090725,6.1,E,A*12
$GPGGA,090119.379,3746.5543,N,12225.0969,W,1,8,1.2,50.0,M,19.6,M,,*42
$GPRMC,090119.379,A,3746.5543,N,12225.0969,W,10.8,39.8,090725,6.1,E,A*1E
$GPGGA,090120.383,3746.5573,N,12225.0945,W,1,8,1.2,50.0,M,19.6,M,,*40
$GPRMC,090120.383,A,3746.5573,N,12225.0945,W,10.8,39.0,090725,6.1,E,A*14
$GPGGA,090121.386,3746.5589,N,12225.0925,W,1,8,1.2,50.0,M,19.6,M,,*47
$GPRMC,090121.386,A,3746.5589,N,12225.0925,W,10.7,38.5,090725,6.1,E,A*18
$GPGGA,090122.389,3746.5615,N,12225.0896,W,1,8,1.2,50.0,M,19.6,M,,*44
$GPRMC,090122.389,A,3746.5615,N,12225.0896,W,10.7,39.3,090725,6.1,E,A*1C
$GPGGA,090123.392,3746.5647,N,12225.0866,W,1,8,1.2,50.0,M,19.6,M,,*47
$GPRMC,090123.392,A,3746.5647,N,12225.0866,W,11.1,38.0,090725,6.1,E,A*1A
$GPGGA,090124.395,3746.5681,N,12225.0858,W,1,8,1.2,50.0,M,19.6,M,,*40
$GPRMC,090124.395,A,3746.5681,N,12225.0858,W,11.1,38.0,090725,6.1,E,A*1D
$GPGGA,090125.398,3746.5708,N,12225.0837,W,1,8,1.2,50.0,M,19.6,M,,*45
$GPRMC,090125.398,A,3746.5708,N,12225.0837,W,11.3,39.3,090725,6.1,E,A*18
$GPGGA,090126.401,3746.5727,N,12225.0824,W,1,8,1.2,50.0,M,19.6,M,,*4E
$GPRMC,090126.401,A,3746.5727,N,12225.0824,W,11.1,39.8,090725,6.1,E,A*1A
$GPGGA,090127.404,3746.5751,N,12225.0807,W,1,8,1.2,50.0,M,19.6,M,,*4A
$GPRMC,090127.404,A,3746.5751,N,12225.0807,W,10.9,39.9,090725,6.1,E,A*16
$GPGGA,090128.407,3746.5772,N,12225.0773,W,1,8,1.2,50.0,M,19.6,M,,*4B
$GPRMC,090128.407,A,3746.5772,N,12225.0773,W,10.7,39.2,090725,6.1,E,A*12
$GPGGA,090129.409,3746.5804,N,12225.0738,W,1,8,1.2,50.0,M,19.6,M,,*45
$GPRMC,090129.409,A,3746.5804,N,12225.0738,W,10.5,39.1,090725,6.1,E,A*1D
$GPGGA,090130.412,3746.5823,N,12225.0708,W,1,8,1.2,50.0,M,19.6,M,,*41
$GPRMC,090130.412,A,3746.5823,N,12225.0708,W,10.3,40.6,090725,6.1,E,A*16
$GPGGA,090131.415,3746.5828,N,12225.0673,W,1,8,1.2,50.0,M,19.6,M,,*41
$GPRMC,090131.415,A,3746.5828,N,12225.0673,W,9.9,40.2,090725,6.1,E,A*20
$GPGGA,090132.418,3746.5833,N,12225.0636,W,1,8,1.2,50.0,M,19.6,M,,*44
$GPRMC,090132.418,A,3746.5833,N,12225.0636,W,9.5,39.6,090725,6.1,E,A*23
$GPGGA,090133.422,3746.5841,N,12225.0616,W,1,8,1.2,50.0,M,19.6,M,,*4B
$GPRMC,090133.422,A,3746.5841,N,12225.0616,W,9.6,41.4,090725,6.1,E,A*22
$GPGGA,090134.425,3746.5852,N,12225.0594,W,1,8,1.2,50.0,M,19.6,M,,*40
$GPRMC,090134.425,A,3746.5852,N,12225.0594,W,9.7,40.6,090725,6.1,E,A*2B
$GPGGA,090135.429,3746.5883,N,12225.0564,W,1,8,1.2,50.0,M,19.6,M,,*4E
$GPRMC,090135.429,A,3746.5883,N,12225.0564,W,9.4,41.5,090725,6.1,E,A*24
$GPGGA,090136.432,3746.5907,N,12225.0536,W,1,8,1.2,50.0,M,19.6,M,,*4D
$GPRMC,090136.432,A,3746.5907,N,12225.0536,W,9.6,41.1,090725,6.1,E,A*21
$GPGGA,090137.435,3746.5941,N,12225.0525,W,1,8,1.2,50.0,M,19.6,M,,*4B
$GPRMC,090137.435,A,3746.5941,N,12225.0525,W,9.8,41.9,090725,6.1,E,A*21
$GPGGA,090138.438,3746.5959,N,12225.0500,W,1,8,1.2,50.0,M,19.6,M,,*47
$GPRMC,090138.438,A,3746.5959,N,12225.0500,W,9.7,42.7,090725,6.1,E,A*2F
$GPGGA,090139.441,3746.5986,N,12225.0489,W,1,8,1.2,50.0,M,19.6,M,,*4A
$GPRMC,090139.441,A,3746.5986,N,12225.0489,W,9.7,42.8,090725,6.1,E,A*2D
$GPGGA,090140.444,3746.6000,N,12225.0461,W,1,8,1.2,50.0,M,19.6,M,,*43
$GPRMC,090140.444,A,3746.6000,N,12225.0461,W,9.8,43.5,090725,6.1,E,A*27
$GPGGA,090141.447,3746.6007,N,12225.0429,W,1,8,1.2,50.0,M,19.6,M,,*4A
$GPRMC,090141.447,A,3746.6007,N,12225.0429,W,9.6,41.6,090725,6.1,E,A*21
$GPGGA,090142.450,3746.6019,N,12225.0384,W,1,8,1.2,50.0,M,19.6,M,,*40
$GPRMC,090142.450,A,3746.6019,N,12225.0384,W,9.6,42.7,090725,6.1,E,A*29
$GPGGA,090143.453,3746.6029,N,12225.0360,W,1,8,1.2,50.0,M,19.6,M,,*4B
$GPRMC,090143.453,A,3746.6029,N,12225.0360,W,9.5,42.3,090725,6.1,E,A*25
$GPGGA,090144.456,3746.6048,N,12225.0333,W,1,8,1.2,50.0,M,19.6,M,,*48
$GPRMC,090144.456,A,3746.6048,N,12225.0333,W,9.3,42.5,090725,6.1,E,A*26
$GPGGA,090145.459,3746.6060,N,12225.0291,W,1,8,1.2,50.0,M,19.6,M,,*45
$GPRMC,090145.459,A,3746.6060,N,12225.0291,W,9.6,43.9,090725,6.1,E,A*23
$GPGGA,090146.462,3746.6093,N,12225.0258,W,1,8,1.2,50.0,M,19.6,M,,*47
$GPRMC,090146.462,A,3746.6093,N,12225.0258,W,9.6,42.6,090725,6.1,E,A*2F
$GPGGA,090147.465,3746.6111,N,12225.0231,W,1,8,1.2,50.0,M,19.6,M,,*45
$GPRMC,090147.465,A,3746.6111,N,12225.0231,W,9.7,44.1,090725,6.1,E,A*2D
$GPGGA,090148.468,3746.6131,N,12225.0204,W,1,8,1.2,50.0,M,19.6,M,,*43
$GPRMC,090148.468,A,3746.6131,N,12225.0204,W,9.5,42.5,090725,6.1,E,A*2B
$GPGGA,090149.470,3746.6146,N,12225.0180,W,1,8,1.2,50.0,M,19.6,M,,*44
$GPRMC,090149.470,A,3746.6146,N,12225.0180,W,9.3,43.0,090725,6.1,E,A*2E
$GPGGA,090150.473,3746.6161,N,12225.0157,W,1,8,1.2,50.0,M,19.6,M,,*40
$GPRMC,090150.473,A,3746.6161,N,12225.0157,W,9.1,42.4,090725,6.1,E,A*2D
$GPGGA,090151.477,3746.6185,N,12225.0129,W,1,8,1.2,50.0,M,19.6,M,,*46
$GPRMC,090151.477,A,3746.6185,N,12225.0129,W,9.2,42.3,090725,6.1,E,A*2F
$GPGGA,090152.480,3746.6207,N,12225.0112,W,1,8,1.2,50.0,M,19.6,M,,*4C
$GPRMC,090152.480,A,3746.6207,N,12225.0112,W,9.3,43.6,090725,6.1,E,A*20
$GPGGA,090153.483,3746.6227,N,12225.0108,W,1,8,1.2,50.0,M,19.6,M,,*47
$GPRMC,090153.483,A,3746.6227,N,12225.0108,W,9.6,42.8,090725,6.1,E,A*21
$GPGGA,090154.486,3746.6236,N,12225.0074,W,1,8,1.2,50.0,M,19.6,M,,*4F
$GPRMC,090154.486,A,3746.6236,N,12225.0074,W,9.6,44.1,090725,6.1,E,A*26
$GPGGA,090155.489,3746.6256,N,12225.0060,W,1,8,1.2,50.0,M,19.6,M,,*42
$GPRMC,090155.489,A,3746.6256,N,12225.0060,W,9.6,45.1,090725,6.1,E,A*2A
$GPGGA,090156.492,3746.6289,N,12225.0054,W,1,8,1.2,50.0,M,19.6,M,,*4E
$GPRMC,090156.492,A,3746.6289,N,12225.0054,W,9.5,44.3,090725,6.1,E,A*26
$GPGGA,090157.495,3746.6296,N,12225.0029,W,1,8,1.2,50.0,M,19.6,M,,*4C
$GPRMC,090157.495,A,3746.6296,N,12225.0029,W,9.4,44.8,090725,6.1,E,A*2E
$GPGGA,090158.497,3746.6318,N,12224.9997,W,1,8,1.2,50.0,M,19.6,M,,*42
$GPRMC,090158.497,A,3746.6318,N,12224.9997,W,9.3,45.5,090725,6.1,E,A*2B
$GPGGA,090159.500,3746.6329,N,12224.9978,W,1,8,1.2,50.0,M,19.6,M,,*4F
$GPRMC,090159.500,A,3746.6329,N,12224.9978,W,9.4,45.1,090725,6.1,E,A*25
$GPGGA,090200.503,3746.6357,N,12224.9945,W,1,8,1.2,50.0,M,19.6,M,,*44
$GPRMC,090200.503,A,3746.6357,N,12224.9945,W,9.5,44.6,090725,6.1,E,A*29
$GPGGA,090201.505,3746.6374,N,12224.9924,W,1,8,1.2,50.0,M,19.6,M,,*45
$GPRMC,090201.505,A,3746.6374,N,12224.9924,W,9.7,44.6,090725,6.1,E,A*2A
$GPGGA,090202.508,3746.6397,N,12224.9885,W,1,8,1.2,50.0,M,19.6,M,,*4C
$GPRMC,090202.508,A,3746.6397,N,12224.9885,W,9.7,45.2,090725,6.1,E,A*26
$GPGGA,090203.510,3746.6431,N,12224.9863,W,1,8,1.2,50.0,M,19.6,M,,*47
$GPRMC,090203.510,A,3746.6431,N,12224.9863,W,10.0,43.7,090725,6.1,E,A*11
$GPGGA,090204.512,3746.6478,N,12224.9835,W,1,8,1.2,50.0,M,19.6,M,,*4C
$GPRMC,090204.512,A,3746.6478,N,12224.9835,W,10.4,42.0,090725,6.1,E,A*18
$GPGGA,090205.515,3746.6511,N,12224.9808,W,1,8,1.2,50.0,M,19.6,M,,*4A
$GPRMC,090205.515,A,3746.6511,N,12224.9808,W,10.0,42.4,090725,6.1,E,A*1E
$GPGGA,090206.518,3746.6529,N,12224.9775,W,1,8,1.2,50.0,M,19.6,M,,*4A
$GPRMC,090206.518,A,3746.6529,N,12224.9775,W,10.1,41.5,090725,6.1,E,A*1D
$GPGGA,090207.520,3746.6536,N,12224.9737,W,1,8,1.2,50.0,M,19.6,M,,*48
$GPRMC,090207.520,A,3746.6536,N,12224.9737,W,10.2,42.1,090725,6.1,E,A*1B
$GPGGA,090208.522,3746.6556,N,12224.9716,W,1,8,1.2,50.0,M,19.6,M,,*40
$GPRMC,090208.522,A,3746.6556,N,12224.9716,W,9.7,42.4,090725,6.1,E,A*2B
$GPGGA,090209.525,3746.6583,N,12224.9704,W,1,8,1.2,50.0,M,19.6,M,,*4D
$GPRMC,090209.525,A,3746.6583,N,12224.9704,W,9.6,42.1,090725,6.1,E,A*22
$GPGGA,090210.527,3746.6614,N,12224.9656,W,1,8,1.2,50.0,M,19.6,M,,*4C
$GPRMC,090210.527,A,3746.6614,N,12224.9656,W,9.6,40.6,090725,6.1,E,A*26
$GPGGA,090211.531,3746.6631,N,12224.9621,W,1,8,1.2,50.0,M,19.6,M,,*4D
$GPRMC,090211.531,A,3746.6631,N,12224.9621,W,9.7,40.4,090725,6.1,E,A*24
$GPGGA,090212.534,3746.6638,N,12224.9605,W,1,8,1.2,50.0,M,19.6,M,,*44
$GPRMC,090212.534,A,3746.6638,N,12224.9605,W,10.1,39.7,090725,6.1,E,A*1E
$GPGGA,090213.537,3746.6636,N,12224.9570,W,1,8,1.2,50.0,M,19.6,M,,*49
$GPRMC,090213.537,A,3746.6636,N,12224.9570,W,10.2,40.8,090725,6.1,E,A*11
$GPGGA,090214.539,3746.6661,N,12224.9540,W,1,8,1.2,50.0,M,19.6,M,,*41
$GPRMC,090214.539,A,3746.6661,N,12224.9540,W,10.3,40.6,090725,6.1,E,A*16
$GPGGA,090215.542,3746.6683,N,12224.9513,W,1,8,1.2,50.0,M,19.6,M,,*46
$GPRMC,090215.542,A,3746.6683,N,12224.9513,W,10.2,40.5,090725,6.1,E,A*13
$GPGGA,090216.545,3746.6720,N,12224.9480,W,1,8,1.2,50.0,M,19.6,M,,*41
$GPRMC,090216.545,A,3746.6720,N,12224.9480,W,10.4,41.1,090725,6.1,E,A*17
$GPGGA,090217.547,3746.6742,N,12224.9464,W,1,8,1.2,50.0,M,19.6,M,,*4C
$GPRMC,090217.547,A,3746.6742,N,12224.9464,W,10.1,39.9,090725,6.1,E,A*18
$GPGGA,090218.549,3746.6762,N,12224.9439,W,1,8,1.2,50.0,M,19.6,M,,*47
$GPRMC,090218.549,A,3746.6762,N,12224.9439,W,9.8,39.8,090725,6.1,E,A*23
$GPGGA,090219.552,3746.6762,N,12224.9411,W,1,8,1.2,50.0,M,19.6,M,,*46
$GPRMC,090219.552,A,3746.6762,N,12224.9411,W,9.9,38.4,090725,6.1,E,A*2E
$GPGGA,090220.554,3746.6787,N,12224.9402,W,1,8,1.2,50.0,M,19.6,M,,*43
$GPRMC,090220.554,A,3746.6787,N,12224.9402,W,9.6,36.3,090725,6.1,E,A*2D
$GPGGA,090221.558,3746.6811,N,12224.9388,W,1,8,1.2,50.0,M,19.6,M,,*4B
$GPRMC,090221.558,A,3746.6811,N,12224.9388,W,9.8,36.0,090725,6.1,E,A*28
$GPGGA,090222.560,3746.6825,N,12224.9374,W,1,8,1.2,50.0,M,19.6,M,,*47
$GPRMC,090222.560,A,3746.6825,N,12224.9374,W,9.9,35.9,090725,6.1,E,A*2F
$GPGGA,090223.562,3746.6851,N,12224.9350,W,1,8,1.2,50.0,M,19.6,M,,*41
$GPRMC,090223.562,A,3746.6851,N,12224.9350,W,9.5,36.8,090725,6.1,E,A*27
$GPGGA,090224.565,3746.6859,N,12224.9346,W,1,8,1.2,50.0,M,19.6,M,,*4E
$GPRMC,090224.565,A,3746.6859,N,12224.9346,W,9.6,37.7,090725,6.1,E,A*25
$GPGGA,090225.568,3746.6881,N,12224.9328,W,1,8,1.2,50.0,M,19.6,M,,*4F
$GPRMC,090225.568,A,3746.6881,N,12224.9328,W,9.2,36.7,090725,6.1,E,A*21
$GPGGA,090226.570,3746.6907,N,12224.9312,W,1,8,1.2,50.0,M,19.6,M,,*43
$GPRMC,090226.570,A,3746.6907,N,12224.9312,W,9.4,37.6,090725,6.1,E,A*2B
$GPGGA,090227.573,3746.6918,N,12224.9293,W,1,8,1.2,50.0,M,19.6,M,,*47
$GPRMC,090227.573,A,3746.6918,N,12224.9293,W,9.3,37.5,090725,6.1,E,A*2B
$GPGGA,090228.575,3746.6937,N,12224.9271,W,1,8,1.2,50.0,M,19.6,M,,*4F
$GPRMC,090228.575,A,3746.6937,N,12224.9271,W,9.4,37.3,090725,6.1,E,A*22
$GPGGA,090229.578,3746.6962,N,12224.9237,W,1,8,1.2,50.0,M,19.6,M,,*41
$GPRMC,090229.578,A,3746.6962,N,12224.9237,W,9.4,37.6,090725,6.1,E,A*29
$GPGGA,090230.581,3746.7002,N,12224.9213,W,1,8,1.2,50.0,M,19.6,M,,*47
$GPRMC,090230.581,A,3746.7002,N,12224.9213,W,9.3,37.0,090725,6.1,E,A*2E
$GPGGA,090231.583,3746.7027,N,12224.9209,W,1,8,1.2,50.0,M,19.6,M,,*48
$GPRMC,090231.583,A,3746.7027,N,12224.9209,W,9.3,38.0,090725,6.1,E,A*2E
$GPGGA,090232.586,3746.7037,N,12224.9193,W,1,8,1.2,50.0,M,19.6,M,,*4F
$GPRMC,090232.586,A,3746.7037,N,12224.9193,W,9.0,38.8,090725,6.1,E,A*22
$GPGGA,090233.589,3746.7071,N,12224.9158,W,1,8,1.2,50.0,M,19.6,M,,*44
$GPRMC,090233.589,A,3746.7071,N,12224.9158,W,8.9,37.8,090725,6.1,E,A*2E
$GPGGA,090234.592,3746.7118,N,12224.9135,W,1,8,1.2,50.0,M,19.6,M,,*4C
$GPRMC,090234.592,A,3746.7118,N,12224.9135,W,9.0,36.4,090725,6.1,E,A*23
$GPGGA,090235.595,3746.7117,N,12224.9121,W,1,8,1.2,50.0,M,19.6,M,,*40
$GPRMC,090235.595,A,3746.7117,N,12224.9121,W,9.2,36.8,090725,6.1,E,A*21
$GPGGA,090236.599,3746.7126,N,12224.9081,W,1,8,1.2,50.0,M,19.6,M,,*46
$GPRMC,090236.599,A,3746.7126,N,12224.9081,W,9.4,38.1,090725,6.1,E,A*26
$GPGGA,090237.602,3746.7146,N,12224.9067,W,1,8,1.2,50.0,M,19.6,M,,*48
$GPRMC,090237.602,A,3746.7146,N,12224.9067,W,9.2,38.2,090725,6.1,E,A*2D
$GPGGA,090238.605,3746.7174,N,12224.9035,W,1,8,1.2,50.0,M,19.6,M,,*46
$GPRMC,090238.605,A,3746.7174,N,12224.9035,W,9.1,37.8,090725,6.1,E,A*25
$GPGGA,090239.608,3746.7190,N,12224.9019,W,1,8,1.2,50.0,M,19.6,M,,*4E
$GPRMC,090239.608,A,3746.7190,N,12224.9019,W,8.7,37.6,090725,6.1,E,A*24
$GPGGA,090240.612,3746.7195,N,12224.8995,W,1,8,1.2,50.0,M,19.6,M,,*42
$GPRMC,090240.612,A,3746.7195,N,12224.8995,W,8.9,39.4,090725,6.1,E,A*2A
$GPGGA,090241.615,3746.7201,N,12224.8974,W,1,8,1.2,50.0,M,19.6,M,,*45
$GPRMC,090241.615,A,3746.7201,N,12224.8974,W,8.9,38.5,090725,6.1,E,A*2D
$GPGGA,090242.618,3746.7226,N,12224.8947,W,1,8,1.2,50.0,M,19.6,M,,*4E
$GPRMC,090242.618,A,3746.7226,N,12224.8947,W,9.0,38.2,090725,6.1,E,A*29
$GPGGA,090243.621,3746.7239,N,12224.8934,W,1,8,1.2,50.0,M,19.6,M,,*4F
$GPRMC,090243.621,A,3746.7239,N,12224.8934,W,9.0,39.6,090725,6.1,E,A*2D
$GPGGA,090244.624,3746.7259,N,12224.8912,W,1,8,1.2,50.0,M,19.6,M,,*4F
$GPRMC,090244.624,A,3746.7259,N,12224.8912,W,8.9,38.5,090725,6.1,E,A*27
$GPGGA,090245.628,3746.7265,N,12224.8906,W,1,8,1.2,50.0,M,19.6,M,,*48
$GPRMC,090245.628,A,3746.7265,N,12224.8906,W,8.9,40.3,090725,6.1,E,A*29
$GPGGA,090246.631,3746.7289,N,12224.8878,W,1,8,1.2,50.0,M,19.6,M,,*49
$GPRMC,090246.631,A,3746.7289,N,12224.8878,W,8.8,41.0,090725,6.1,E,A*2B
$GPGGA,090247.634,3746.7293,N,12224.8862,W,1,8,1.2,50.0,M,19.6,M,,*4D
$GPRMC,090247.634,A,3746.7293,N,12224.8862,W,8.7,41.4,090725,6.1,E,A*24
$GPGGA,090248.637,3746.7322,N,12224.8851,W,1,8,1.2,50.0,M,19.6,M,,*4A
$GPRMC,090248.637,A,3746.7322,N,12224.8851,W,8.7,42.8,090725,6.1,E,A*2C
$GPGGA,090249.641,3746.7343,N,12224.8839,W,1,8,1.2,50.0,M,19.6,M,,*43
$GPRMC,090249.641,A,3746.7343,N,12224.8839,W,8.7,44.6,090725,6.1,E,A*2D
