# NMEA Simulation started at 2025-07-08T07:37:18.590272
$GPGGA,073719.594,3746.4953,N,12225.1625,W,1,8,1.2,50.0,M,19.6,M,,*46
$GPRMC,073719.594,A,3746.4953,N,12225.1625,W,5.0,43.3,080725,6.1,E,A*21
$GPGGA,073720.598,3746.4943,N,12225.1603,W,1,8,1.2,50.0,M,19.6,M,,*45
$GPRMC,073720.598,A,3746.4943,N,12225.1603,W,5.3,43.7,080725,6.1,E,A*25
$GPGGA,073721.603,3746.4998,N,12225.1606,W,1,8,1.2,50.0,M,19.6,M,,*46
$GPRMC,073721.603,A,3746.4998,N,12225.1606,W,5.2,44.3,080725,6.1,E,A*24
$GPGGA,073722.607,3746.5032,N,12225.1560,W,1,8,1.2,50.0,M,19.6,M,,*4A
$GPRMC,073722.607,A,3746.5032,N,12225.1560,W,5.4,44.7,080725,6.1,E,A*2A
$GPGGA,073723.611,3746.5049,N,12225.1541,W,1,8,1.2,50.0,M,19.6,M,,*43
$GPRMC,073723.611,A,3746.5049,N,12225.1541,W,5.5,45.7,080725,6.1,E,A*23
$GPGGA,073724.615,3746.5040,N,12225.1521,W,1,8,1.2,50.0,M,19.6,M,,*4F
$GPRMC,073724.615,A,3746.5040,N,12225.1521,W,5.3,46.9,080725,6.1,E,A*24
$GPGGA,073725.635,3746.5050,N,12225.1485,W,1,8,1.2,50.0,M,19.6,M,,*42
$GPRMC,073725.635,A,3746.5050,N,12225.1485,W,5.5,45.8,080725,6.1,E,A*2D
$GPGGA,073726.639,3746.5100,N,12225.1485,W,1,8,1.2,50.0,M,19.6,M,,*49
$GPRMC,073726.639,A,3746.5100,N,12225.1485,W,5.5,44.8,080725,6.1,E,A*27
$GPGGA,073727.643,3746.5128,N,12225.1473,W,1,8,1.2,50.0,M,19.6,M,,*46
$GPRMC,073727.643,A,3746.5128,N,12225.1473,W,5.6,44.4,080725,6.1,E,A*27
$GPGGA,073728.647,3746.5121,N,12225.1438,W,1,8,1.2,50.0,M,19.6,M,,*4B
$GPRMC,073728.647,A,3746.5121,N,12225.1438,W,5.6,44.3,080725,6.1,E,A*2D
$GPGGA,073729.651,3746.5128,N,12225.1424,W,1,8,1.2,50.0,M,19.6,M,,*49
$GPRMC,073729.651,A,3746.5128,N,12225.1424,W,5.4,44.3,080725,6.1,E,A*2D
$GPGGA,073730.658,3746.5125,N,12225.1393,W,1,8,1.2,50.0,M,19.6,M,,*4E
$GPRMC,073730.658,A,3746.5125,N,12225.1393,W,5.3,43.1,080725,6.1,E,A*28
$GPGGA,073731.662,3746.5122,N,12225.1367,W,1,8,1.2,50.0,M,19.6,M,,*4A
$GPRMC,073731.662,A,3746.5122,N,12225.1367,W,5.5,42.4,080725,6.1,E,A*2E
$GPGGA,073732.666,3746.5144,N,12225.1382,W,1,8,1.2,50.0,M,19.6,M,,*46
$GPRMC,073732.666,A,3746.5144,N,12225.1382,W,5.7,43.0,080725,6.1,E,A*25
$GPGGA,073733.670,3746.5149,N,12225.1343,W,1,8,1.2,50.0,M,19.6,M,,*40
$GPRMC,073733.670,A,3746.5149,N,12225.1343,W,5.7,42.2,080725,6.1,E,A*20
$GPGGA,073734.673,3746.5146,N,12225.1334,W,1,8,1.2,50.0,M,19.6,M,,*4B
$GPRMC,073734.673,A,3746.5146,N,12225.1334,W,5.5,41.6,080725,6.1,E,A*2E
$GPGGA,073735.695,3746.5160,N,12225.1329,W,1,8,1.2,50.0,M,19.6,M,,*4A
$GPRMC,073735.695,A,3746.5160,N,12225.1329,W,5.5,39.9,080725,6.1,E,A*2F
$GPGGA,073736.699,3746.5158,N,12225.1352,W,1,8,1.2,50.0,M,19.6,M,,*42
$GPRMC,073736.699,A,3746.5158,N,12225.1352,W,5.7,39.3,080725,6.1,E,A*2F
$GPGGA,073737.703,3746.5152,N,12225.1325,W,1,8,1.2,50.0,M,19.6,M,,*4B
$GPRMC,073737.703,A,3746.5152,N,12225.1325,W,5.8,38.9,080725,6.1,E,A*22
$GPGGA,073738.707,3746.5125,N,12225.1324,W,1,8,1.2,50.0,M,19.6,M,,*41
$GPRMC,073738.707,A,3746.5125,N,12225.1324,W,5.8,40.0,080725,6.1,E,A*2E
$GPGGA,073739.710,3746.5104,N,12225.1347,W,1,8,1.2,50.0,M,19.6,M,,*40
$GPRMC,073739.710,A,3746.5104,N,12225.1347,W,5.6,39.7,080725,6.1,E,A*28
$GPGGA,073740.756,3746.5145,N,12225.1347,W,1,8,1.2,50.0,M,19.6,M,,*49
$GPRMC,073740.756,A,3746.5145,N,12225.1347,W,6.0,39.8,080725,6.1,E,A*2B
$GPGGA,073741.760,3746.5126,N,12225.1362,W,1,8,1.2,50.0,M,19.6,M,,*4F
$GPRMC,073741.760,A,3746.5126,N,12225.1362,W,5.9,40.8,080725,6.1,E,A*29
$GPGGA,073742.764,3746.5110,N,12225.1373,W,1,8,1.2,50.0,M,19.6,M,,*4D
$GPRMC,073742.764,A,3746.5110,N,12225.1373,W,6.1,39.6,080725,6.1,E,A*20
$GPGGA,073743.768,3746.5136,N,12225.1347,W,1,8,1.2,50.0,M,19.6,M,,*43
$GPRMC,073743.768,A,3746.5136,N,12225.1347,W,6.2,39.8,080725,6.1,E,A*23
$GPGGA,073744.772,3746.5183,N,12225.1341,W,1,8,1.2,50.0,M,19.6,M,,*47
$GPRMC,073744.772,A,3746.5183,N,12225.1341,W,6.3,40.8,080725,6.1,E,A*28
$GPGGA,073745.786,3746.5192,N,12225.1354,W,1,8,1.2,50.0,M,19.6,M,,*49
$GPRMC,073745.786,A,3746.5192,N,12225.1354,W,6.1,40.9,080725,6.1,E,A*25
$GPGGA,073746.790,3746.5191,N,12225.1351,W,1,8,1.2,50.0,M,19.6,M,,*4B
$GPRMC,073746.790,A,3746.5191,N,12225.1351,W,6.0,39.3,080725,6.1,E,A*22
$GPGGA,073747.794,3746.5211,N,12225.1368,W,1,8,1.2,50.0,M,19.6,M,,*4F
$GPRMC,073747.794,A,3746.5211,N,12225.1368,W,5.8,39.8,080725,6.1,E,A*26
$GPGGA,073748.799,3746.5237,N,12225.1355,W,1,8,1.2,50.0,M,19.6,M,,*47
$GPRMC,073748.799,A,3746.5237,N,12225.1355,W,5.8,39.0,080725,6.1,E,A*26
$GPGGA,073749.802,3746.5237,N,12225.1349,W,1,8,1.2,50.0,M,19.6,M,,*46
$GPRMC,073749.802,A,3746.5237,N,12225.1349,W,5.7,38.5,080725,6.1,E,A*2C
$GPGGA,073750.809,3746.5254,N,12225.1325,W,1,8,1.2,50.0,M,19.6,M,,*4A
$GPRMC,073750.809,A,3746.5254,N,12225.1325,W,5.7,39.3,080725,6.1,E,A*27
$GPGGA,073751.813,3746.5283,N,12225.1302,W,1,8,1.2,50.0,M,19.6,M,,*4F
$GPRMC,073751.813,A,3746.5283,N,12225.1302,W,6.1,38.0,080725,6.1,E,A*25
$GPGGA,073752.817,3746.5316,N,12225.1319,W,1,8,1.2,50.0,M,19.6,M,,*4F
$GPRMC,073752.817,A,3746.5316,N,12225.1319,W,6.1,38.0,080725,6.1,E,A*25
$GPGGA,073753.821,3746.5335,N,12225.1313,W,1,8,1.2,50.0,M,19.6,M,,*40
$GPRMC,073753.821,A,3746.5335,N,12225.1313,W,6.3,39.3,080725,6.1,E,A*2A
$GPGGA,073754.825,3746.5337,N,12225.1324,W,1,8,1.2,50.0,M,19.6,M,,*45
$GPRMC,073754.825,A,3746.5337,N,12225.1324,W,6.1,39.8,080725,6.1,E,A*26
$GPGGA,073755.831,3746.5352,N,12225.1326,W,1,8,1.2,50.0,M,19.6,M,,*40
$GPRMC,073755.831,A,3746.5352,N,12225.1326,W,5.9,39.9,080725,6.1,E,A*29
$GPGGA,073756.835,3746.5360,N,12225.1293,W,1,8,1.2,50.0,M,19.6,M,,*49
$GPRMC,073756.835,A,3746.5360,N,12225.1293,W,5.7,39.2,080725,6.1,E,A*25
$GPGGA,073757.839,3746.5390,N,12225.1258,W,1,8,1.2,50.0,M,19.6,M,,*4C
$GPRMC,073757.839,A,3746.5390,N,12225.1258,W,5.5,39.1,080725,6.1,E,A*21
$GPGGA,073758.843,3746.5396,N,12225.1231,W,1,8,1.2,50.0,M,19.6,M,,*47
$GPRMC,073758.843,A,3746.5396,N,12225.1231,W,5.3,40.6,080725,6.1,E,A*25
$GPGGA,073759.847,3746.5372,N,12225.1196,W,1,8,1.2,50.0,M,19.6,M,,*46
$GPRMC,073759.847,A,3746.5372,N,12225.1196,W,4.9,40.2,080725,6.1,E,A*2B
$GPGGA,073800.877,3746.5352,N,12225.1156,W,1,8,1.2,50.0,M,19.6,M,,*48
$GPRMC,073800.877,A,3746.5352,N,12225.1156,W,4.5,39.6,080725,6.1,E,A*23
$GPGGA,073801.881,3746.5337,N,12225.1149,W,1,8,1.2,50.0,M,19.6,M,,*4D
$GPRMC,073801.881,A,3746.5337,N,12225.1149,W,4.6,41.4,080725,6.1,E,A*28
$GPGGA,073802.885,3746.5328,N,12225.1138,W,1,8,1.2,50.0,M,19.6,M,,*42
$GPRMC,073802.885,A,3746.5328,N,12225.1138,W,4.7,40.6,080725,6.1,E,A*25
$GPGGA,073803.889,3746.5361,N,12225.1112,W,1,8,1.2,50.0,M,19.6,M,,*4A
$GPRMC,073803.889,A,3746.5361,N,12225.1112,W,4.4,41.5,080725,6.1,E,A*2C
$GPGGA,073804.893,3746.5378,N,12225.1090,W,1,8,1.2,50.0,M,19.6,M,,*45
$GPRMC,073804.893,A,3746.5378,N,12225.1090,W,4.6,41.1,080725,6.1,E,A*25
$GPGGA,073805.903,3746.5415,N,12225.1102,W,1,8,1.2,50.0,M,19.6,M,,*4A
$GPRMC,073805.903,A,3746.5415,N,12225.1102,W,4.8,41.9,080725,6.1,E,A*2C
$GPGGA,073806.907,3746.5420,N,12225.1087,W,1,8,1.2,50.0,M,19.6,M,,*47
$GPRMC,073806.907,A,3746.5420,N,12225.1087,W,4.7,42.7,080725,6.1,E,A*23
$GPGGA,073807.910,3746.5445,N,12225.1101,W,1,8,1.2,50.0,M,19.6,M,,*4C
$GPRMC,073807.910,A,3746.5445,N,12225.1101,W,4.7,42.8,080725,6.1,E,A*27
$GPGGA,073808.915,3746.5442,N,12225.1080,W,1,8,1.2,50.0,M,19.6,M,,*49
$GPRMC,073808.915,A,3746.5442,N,12225.1080,W,4.8,43.5,080725,6.1,E,A*21
$GPGGA,073809.918,3746.5426,N,12225.1052,W,1,8,1.2,50.0,M,19.6,M,,*48
$GPRMC,073809.918,A,3746.5426,N,12225.1052,W,4.6,41.6,080725,6.1,E,A*2F
$GPGGA,073810.926,3746.5420,N,12225.0996,W,1,8,1.2,50.0,M,19.6,M,,*4B
$GPRMC,073810.926,A,3746.5420,N,12225.0996,W,4.6,42.7,080725,6.1,E,A*2E
$GPGGA,073811.930,3746.5411,N,12225.0981,W,1,8,1.2,50.0,M,19.6,M,,*49
$GPRMC,073811.930,A,3746.5411,N,12225.0981,W,4.5,42.3,080725,6.1,E,A*2B
$GPGGA,073812.933,3746.5420,N,12225.0963,W,1,8,1.2,50.0,M,19.6,M,,*47
$GPRMC,073812.933,A,3746.5420,N,12225.0963,W,4.3,42.5,080725,6.1,E,A*25
$GPGGA,073813.937,3746.5413,N,12225.0914,W,1,8,1.2,50.0,M,19.6,M,,*42
$GPRMC,073813.937,A,3746.5413,N,12225.0914,W,4.6,43.9,080725,6.1,E,A*28
$GPGGA,073814.941,3746.5449,N,12225.0882,W,1,8,1.2,50.0,M,19.6,M,,*45
$GPRMC,073814.941,A,3746.5449,N,12225.0882,W,4.6,42.6,080725,6.1,E,A*21
$GPGGA,073815.970,3746.5453,N,12225.0857,W,1,8,1.2,50.0,M,19.6,M,,*45
$GPRMC,073815.970,A,3746.5453,N,12225.0857,W,4.7,43.8,080725,6.1,E,A*2F
$GPGGA,073816.974,3746.5468,N,12225.0842,W,1,8,1.2,50.0,M,19.6,M,,*4E
$GPRMC,073816.974,A,3746.5468,N,12225.0842,W,4.5,42.8,080725,6.1,E,A*27
$GPGGA,073817.979,3746.5468,N,12225.0827,W,1,8,1.2,50.0,M,19.6,M,,*41
$GPRMC,073817.979,A,3746.5468,N,12225.0827,W,4.2,43.4,080725,6.1,E,A*22
